poi_id,poi_name,poi_category,poi_latitude,poi_longitude,poi_ratings,,,,,
1806848972,ちぬまん,restaurant,26.2155192001422,127.6854314,"{3.0,4.0,3.0,5.0,2.0,3.0,2.0,2.0,2.0,2.0}",,,,,
428667258,Otter Creek State Forest,nature-reserve,43.7149419232782,-75.3263056920684,"{3.0,4.0,3.0,5.0,2.0,3.0,2.0,2.0,2.0,2.0}",,,,,
813164026,Солдатский пляж,beach,51.2467593558086,58.6264566028813,"{3.0,4.0,3.0,5.0,2.0,3.0,2.0,2.0,2.0,2.0}",,,,,
502595764,Chester Road,bus-stop,54.8981600993903,-1.4175971,"{3.0,4.0,3.0,5.0,2.0,3.0,2.0,2.0,2.0,2.0}",,,,,
486649349,Papa Murphy's,fast-food,37.4331937999042,-122.1292931,"{3.0,4.0,3.0,5.0,2.0,3.0,2.0,2.0,2.0,2.0}",,,,,
5477423259,ねむ猫,restaurant,35.7075872997077,139.7592621,"{3.0,4.0,3.0,5.0,2.0,3.0,2.0,2.0,2.0,2.0}",,,,,
4390484395,31st Street & Canal,bus-stop,41.8380950004737,-87.6379025,"{3.0,4.0,3.0,5.0,2.0,3.0,2.0,2.0,2.0,2.0}",,,,,
1679569885,76-р цэцэрлэг,kindergarten,47.9241245999557,106.8728128,"{3.0,4.0,3.0,5.0,2.0,3.0,2.0,2.0,2.0,2.0}",,,,,
8927949261,八潮市役所東,bus-stop,35.8201054997181,139.840073,"{3.0,4.0,3.0,5.0,2.0,3.0,2.0,2.0,2.0,2.0}",,,,,
6233153785,Cosmo,coffee-shop,1.07397869988651,34.177831,"{3.0,4.0,3.0,5.0,2.0,3.0,2.0,2.0,2.0,2.0}",,,,,
493575962,Yayasan Al Falah Al Anshoriyah MI/MTs/SMK,school,-6.29296819810023,106.876937462305,"{3.0,4.0,3.0,5.0,2.0,3.0,2.0,2.0,2.0,2.0}",,,,,
3740059728,Календула,pharmacy,64.5413172994682,40.5274419,"{3.0,4.0,3.0,5.0,2.0,3.0,2.0,2.0,2.0,2.0}",,,,,
4243702891,SDN 02,school,-8.91334839982342,116.7533653,"{3.0,4.0,3.0,5.0,2.0,3.0,2.0,2.0,2.0,2.0}",,,,,
157797266,Walmart Supercenter,supermarket,39.3964094679161,-77.4109459744213,"{3.0,4.0,3.0,5.0,2.0,3.0,2.0,2.0,2.0,2.0}",,,,,
358771018,Gordon Lee School,school,34.8700607996432,-85.2957503,"{3.0,4.0,3.0,5.0,2.0,3.0,2.0,2.0,2.0,2.0}",,,,,
3232003261,Метро «Тропарёво»,bus-stop,55.6442308996435,37.471695,"{3.0,4.0,3.0,5.0,2.0,3.0,2.0,2.0,2.0,2.0}",,,,,
11155476759,沙田站 Sha Tin Station,bus-stop,22.3835211004023,114.1881326,"{3.0,4.0,3.0,5.0,2.0,3.0,2.0,2.0,2.0,2.0}",,,,,
416607040,RM. Ikan Bakar ArayasKalimantan 70,restaurant,-5.1218011870765,119.411629148044,"{3.0,4.0,3.0,5.0,2.0,3.0,2.0,2.0,2.0,2.0}",,,,,
5845181419,Capistrano Drive & Almanza Drive,bus-stop,37.7308280999445,-122.1784954,"{3.0,4.0,3.0,5.0,2.0,3.0,2.0,2.0,2.0,2.0}",,,,,
429466181,Wyspa Łososiowa,park,54.4167496316802,16.4130568212253,"{3.0,4.0,3.0,5.0,2.0,3.0,2.0,2.0,2.0,2.0}",,,,,
2280666180,Stop 51E Troutbeck Crescent - North West side,bus-stop,-35.1550454999222,138.5161251,"{3.0,4.0,3.0,5.0,2.0,3.0,2.0,2.0,2.0,2.0}",,,,,
9461318255,Binderi,bus-stop,56.7115821001147,21.3069544,"{3.0,4.0,3.0,5.0,2.0,3.0,2.0,2.0,2.0,2.0}",,,,,
10259115712,Virta-kampus,bus-stop,61.3099018017279,23.7719697,"{3.0,4.0,3.0,5.0,2.0,3.0,2.0,2.0,2.0,2.0}",,,,,
2280656100,Stop 19 Greenhill Road - North West side,bus-stop,-34.9574843998799,138.7157659,"{3.0,4.0,3.0,5.0,2.0,3.0,2.0,2.0,2.0,2.0}",,,,,
4083712865,"Benešov nad Ploučnicí, závod I",bus-stop,50.7409943992965,14.3009984,"{3.0,4.0,3.0,5.0,2.0,3.0,2.0,2.0,2.0,2.0}",,,,,
2565539187,Karnataka State Women's University,college,16.8319715001175,75.6425088,"{3.0,4.0,3.0,5.0,2.0,3.0,2.0,2.0,2.0,2.0}",,,,,
704228256,Jim's,restaurant,29.4343091630198,-98.7099460718494,"{3.0,4.0,3.0,5.0,2.0,3.0,2.0,2.0,2.0,2.0}",,,,,
4558663629,Emin Eczanesi,pharmacy,41.0062304003928,28.5369597,"{3.0,4.0,3.0,5.0,2.0,3.0,2.0,2.0,2.0,2.0}",,,,,
851407076,Banilad Elementary School,school,10.8337718330083,123.044260292622,"{3.0,4.0,3.0,5.0,2.0,3.0,2.0,2.0,2.0,2.0}",,,,,
921438980,China in Box,restaurant,-1.4124761730864,-48.4422856030506,"{3.0,4.0,3.0,5.0,2.0,3.0,2.0,2.0,2.0,2.0}",,,,,
11367051206,PORDENONE via Maestra 15,bus-stop,45.9770458003461,12.6623746,"{3.0,4.0,3.0,5.0,2.0,3.0,2.0,2.0,2.0,2.0}",,,,,
9174254987,Butchers Arms,bus-stop,51.7912756991375,-3.3698701,"{3.0,4.0,3.0,5.0,2.0,3.0,2.0,2.0,2.0,2.0}",,,,,
10172072821,Aşlamacı Eczanesi,pharmacy,37.0360398998528,35.2819982,"{3.0,4.0,3.0,5.0,2.0,3.0,2.0,2.0,2.0,2.0}",,,,,
3708669114,Heidegarten,bus-stop,51.541970199167,6.2471434,"{3.0,4.0,3.0,5.0,2.0,3.0,2.0,2.0,2.0,2.0}",,,,,
676036696,Antoninek PKM,bus-stop,52.4096144990914,17.0294035,"{3.0,4.0,3.0,5.0,2.0,3.0,2.0,2.0,2.0,2.0}",,,,,
380861801,Allee/Moltkestraße,bus-stop,49.1411962996574,9.2222724,"{3.0,4.0,3.0,5.0,2.0,3.0,2.0,2.0,2.0,2.0}",,,,,
5580848778,Institución Educativa Ciro Alegria Bazan,school,-6.59113869969738,-78.8175906,"{3.0,4.0,3.0,5.0,2.0,3.0,2.0,2.0,2.0,2.0}",,,,,
505906771,Arena,park,47.3926102891541,8.42498751152812,"{3.0,4.0,3.0,5.0,2.0,3.0,2.0,2.0,2.0,2.0}",,,,,
214233676,Steakhaus,restaurant,51.3576451635311,7.49717306949481,"{3.0,4.0,3.0,5.0,2.0,3.0,2.0,2.0,2.0,2.0}",,,,,
128287318,Kaufland,supermarket,50.9792404151687,13.9492121974231,"{3.0,4.0,3.0,5.0,2.0,3.0,2.0,2.0,2.0,2.0}",,,,,
1454974,Kuhaugen,park,63.4297540004839,10.4301546260664,"{3.0,4.0,3.0,5.0,2.0,3.0,2.0,2.0,2.0,2.0}",,,,,
4809472321,西屋ラーメン,restaurant,38.7383364000879,141.0340794,"{3.0,4.0,3.0,5.0,2.0,3.0,2.0,2.0,2.0,2.0}",,,,,
4456517889,Webb Custom Kitchen,restaurant,35.2624866996705,-81.1836782,"{3.0,4.0,3.0,5.0,2.0,3.0,2.0,2.0,2.0,2.0}",,,,,
5517947084,手打ちうどんよしの,restaurant,34.1823272996082,131.2111969,"{3.0,4.0,3.0,5.0,2.0,3.0,2.0,2.0,2.0,2.0}",,,,,
9875316117,Bom prato,restaurant,-23.9403290999338,-46.3184579,"{3.0,4.0,3.0,5.0,2.0,3.0,2.0,2.0,2.0,2.0}",,,,,
7089765985,UBS Maracanã,clinic,-25.5344656997027,-54.567749,"{3.0,4.0,3.0,5.0,2.0,3.0,2.0,2.0,2.0,2.0}",,,,,
957133938,"Долгопрудная улица, 3",bus-stop,55.8935825997433,37.5411182,"{3.0,4.0,3.0,5.0,2.0,3.0,2.0,2.0,2.0,2.0}",,,,,
4334458572,Augenarzt,doctor,50.5773793993285,11.8068143,"{3.0,4.0,3.0,5.0,2.0,3.0,2.0,2.0,2.0,2.0}",,,,,
5401303003,Le Grand Bleu,restaurant,43.6954756005401,7.2749702,"{3.0,4.0,3.0,5.0,2.0,3.0,2.0,2.0,2.0,2.0}",,,,,
11267611754,Πάραυτα Μεζεδοπωλείο,restaurant,39.7385080002314,22.2889093,"{3.0,4.0,3.0,5.0,2.0,3.0,2.0,2.0,2.0,2.0}",,,,,
2173603802,École maternelle Le Valfray,school,45.3483097004312,5.5035502,"{3.0,4.0,3.0,5.0,2.0,3.0,2.0,2.0,2.0,2.0}",,,,,
9386522002,Калинка,convenience-store,55.0698889994422,57.5480196,"{3.0,4.0,3.0,5.0,2.0,3.0,2.0,2.0,2.0,2.0}",,,,,
10653355215,周庄,bus-stop,39.5813410002093,116.0311434,"{3.0,4.0,3.0,5.0,2.0,3.0,2.0,2.0,2.0,2.0}",,,,,
7361660423,和紙の里,bus-stop,36.0528838997408,139.2033391,"{3.0,4.0,3.0,5.0,2.0,3.0,2.0,2.0,2.0,2.0}",,,,,
9687264735,Moreno y San Martín,bus-stop,-34.5790307998016,-58.5367884,"{3.0,4.0,3.0,5.0,2.0,3.0,2.0,2.0,2.0,2.0}",,,,,
969874376,EuroSpin,supermarket,43.6862817534138,12.6484577900797,"{3.0,4.0,3.0,5.0,2.0,3.0,2.0,2.0,2.0,2.0}",,,,,
2262816612,Zevergem Kriekstraat,bus-stop,50.9804026992529,3.675981,"{3.0,4.0,3.0,5.0,2.0,3.0,2.0,2.0,2.0,2.0}",,,,,
595271235,OSS Orthopaedic Hospital,hospital,39.9169979761044,-76.6954932074149,"{3.0,4.0,3.0,5.0,2.0,3.0,2.0,2.0,2.0,2.0}",,,,,
8387359524,小西灣（藍灣半島） Siu Sai Wan (Island Resort),bus-stop,22.2659474004046,114.2510306,"{3.0,4.0,3.0,5.0,2.0,3.0,2.0,2.0,2.0,2.0}",,,,,
6067602922,"Avenida Doutor Alexandre Rasgulaeff, 1028",bus-stop,-23.402677800011,-51.9171073,"{3.0,4.0,3.0,5.0,2.0,3.0,2.0,2.0,2.0,2.0}",,,,,
5650642386,Woodward Avenue & Stanhope Street,bus-stop,40.7090428003584,-73.9126106,"{3.0,4.0,3.0,5.0,2.0,3.0,2.0,2.0,2.0,2.0}",,,,,
2033235373,Gasthaus,bus-stop,51.573054199163,14.4979281,"{3.0,4.0,3.0,5.0,2.0,3.0,2.0,2.0,2.0,2.0}",,,,,
9593887402,Trường THCS Tri Thủy,school,20.7003503003977,105.955216,"{3.0,4.0,3.0,5.0,2.0,3.0,2.0,2.0,2.0,2.0}",,,,,
622215255,2 St N,bus-stop,44.927759900475,-93.405843,"{3.0,4.0,3.0,5.0,2.0,3.0,2.0,2.0,2.0,2.0}",,,,,
5388449008,末東口,bus-stop,34.9389462996476,135.2043751,"{3.0,4.0,3.0,5.0,2.0,3.0,2.0,2.0,2.0,2.0}",,,,,
10130228017,Le Chaudron Cathare,fast-food,43.2052028005405,2.3642748,"{3.0,4.0,3.0,5.0,2.0,3.0,2.0,2.0,2.0,2.0}",,,,,
9626942242,New Bismark Store,convenience-store,27.7419099999751,85.302904,"{3.0,4.0,3.0,5.0,2.0,3.0,2.0,2.0,2.0,2.0}",,,,,
1212564648,Parcul Terra,park,45.7954352789838,21.2264357181528,"{3.0,4.0,3.0,5.0,2.0,3.0,2.0,2.0,2.0,2.0}",,,,,
8968371659,Volcano Primary School,school,0.379190099960613,32.56131,"{3.0,4.0,3.0,5.0,2.0,3.0,2.0,2.0,2.0,2.0}",,,,,
189161895,7-Eleven,convenience-store,22.6630924511723,120.487778989071,"{3.0,4.0,3.0,5.0,2.0,3.0,2.0,2.0,2.0,2.0}",,,,,
10004442470,Pause gourmande,coffee-shop,45.0302036004653,1.1279858,"{3.0,4.0,3.0,5.0,2.0,3.0,2.0,2.0,2.0,2.0}",,,,,
432068279,Al Imam Al Shaf'i,school,32.2062621996015,35.2819813,"{3.0,4.0,3.0,5.0,2.0,3.0,2.0,2.0,2.0,2.0}",,,,,
4351227376,อังคาร สุชาติ คชสาร,coffee-shop,12.7167139996498,101.243436,"{3.0,4.0,3.0,5.0,2.0,3.0,2.0,2.0,2.0,2.0}",,,,,
449158597,Thomas Jefferson High School at Thomas Edison,school,32.7777471160066,-96.8691789550211,"{3.0,4.0,3.0,5.0,2.0,3.0,2.0,2.0,2.0,2.0}",,,,,
5615905722,つけめん玉 三三㐂,restaurant,35.5258951996918,139.6958939,"{3.0,4.0,3.0,5.0,2.0,3.0,2.0,2.0,2.0,2.0}",,,,,
9660525951,Restaurante Estilo Gaucho,restaurant,40.518735100335,-3.926473,"{3.0,4.0,3.0,5.0,2.0,3.0,2.0,2.0,2.0,2.0}",,,,,
2378807082,Christers Matsal,restaurant,59.3009601013895,18.0954798,"{3.0,4.0,3.0,5.0,2.0,3.0,2.0,2.0,2.0,2.0}",,,,,
338101552,Jumbo,supermarket,51.1941872869274,4.54216115747024,"{3.0,4.0,3.0,5.0,2.0,3.0,2.0,2.0,2.0,2.0}",,,,,
808376474,SDN Balobone,school,-5.30155501937046,122.279270998692,"{3.0,4.0,3.0,5.0,2.0,3.0,2.0,2.0,2.0,2.0}",,,,,
4502499494,Montméry,bus-stop,48.2879476998682,2.8592465,"{3.0,4.0,3.0,5.0,2.0,3.0,2.0,2.0,2.0,2.0}",,,,,
5731326875,Traditions at Kennedy,restaurant,39.9965539002668,-83.0138394,"{3.0,4.0,3.0,5.0,2.0,3.0,2.0,2.0,2.0,2.0}",,,,,
23036286,Appleton Street Park,park,-27.5347435101055,153.118319991055,"{3.0,4.0,3.0,5.0,2.0,3.0,2.0,2.0,2.0,2.0}",,,,,
5110345639,Migros,supermarket,41.0118667003935,28.9753252,"{3.0,4.0,3.0,5.0,2.0,3.0,2.0,2.0,2.0,2.0}",,,,,
208687651,Forsyth,park,-29.1201331635132,26.1818367472261,"{3.0,4.0,3.0,5.0,2.0,3.0,2.0,2.0,2.0,2.0}",,,,,
6117493326,Kaalamaa,restaurant,3.9433962995925,73.4920709,"{3.0,4.0,3.0,5.0,2.0,3.0,2.0,2.0,2.0,2.0}",,,,,
440981482,Stephansweg,bus-stop,51.7627177991406,7.9218427,"{3.0,4.0,3.0,5.0,2.0,3.0,2.0,2.0,2.0,2.0}",,,,,
5038198025,Bibimbab,restaurant,50.9401009992599,6.9379323,"{3.0,4.0,3.0,5.0,2.0,3.0,2.0,2.0,2.0,2.0}",,,,,
5637150812,潘府小吃店(潘肉圓),restaurant,23.4750905003629,120.4408444,"{3.0,4.0,3.0,5.0,2.0,3.0,2.0,2.0,2.0,2.0}",,,,,
9467248647,Амбулатория,clinic,43.2696301005412,43.1510219,"{3.0,4.0,3.0,5.0,2.0,3.0,2.0,2.0,2.0,2.0}",,,,,
7549603774,Güntherstraße,bus-stop,50.0816656994339,8.6455082,"{3.0,4.0,3.0,5.0,2.0,3.0,2.0,2.0,2.0,2.0}",,,,,
868433780,7-Eleven,convenience-store,25.0560770002532,121.6138676,"{3.0,4.0,3.0,5.0,2.0,3.0,2.0,2.0,2.0,2.0}",,,,,
256377430,Trinidad,railway-station,-33.5463691996117,-70.5880698,"{3.0,4.0,3.0,5.0,2.0,3.0,2.0,2.0,2.0,2.0}",,,,,
3923830397,Mekanikervägen,bus-stop,59.2069335013514,17.9235717,"{3.0,4.0,3.0,5.0,2.0,3.0,2.0,2.0,2.0,2.0}",,,,,
6165348009,Restaurante Tia Maria,restaurant,43.5362689005417,-6.5051123,"{3.0,4.0,3.0,5.0,2.0,3.0,2.0,2.0,2.0,2.0}",,,,,
203537163,Kindertagesstätte St. Raphael,kindergarten,50.124500133639,8.62215226146908,"{3.0,4.0,3.0,5.0,2.0,3.0,2.0,2.0,2.0,2.0}",,,,,
539471331,Riihiviidantie I,bus-stop,60.7574552017455,24.7555137,"{3.0,4.0,3.0,5.0,2.0,3.0,2.0,2.0,2.0,2.0}",,,,,
6665721748,Café Nullpunkt,restaurant,52.503417799088,13.3929014,"{3.0,4.0,3.0,5.0,2.0,3.0,2.0,2.0,2.0,2.0}",,,,,
455096260,S-Power Mini Supermarket,supermarket,1.36171317043438,103.873687244646,"{3.0,4.0,3.0,5.0,2.0,3.0,2.0,2.0,2.0,2.0}",,,,,
4902841784,West Zone,supermarket,25.2466804002364,55.3077601,"{3.0,4.0,3.0,5.0,2.0,3.0,2.0,2.0,2.0,2.0}",,,,,
906399096,Colegio Alborada School,school,-33.6059433996215,-70.8912565,"{3.0,4.0,3.0,5.0,2.0,3.0,2.0,2.0,2.0,2.0}",,,,,
2200185435,Poieni,railway-station,46.9140210001787,22.8614104,"{3.0,4.0,3.0,5.0,2.0,3.0,2.0,2.0,2.0,2.0}",,,,,
1362647591,Farmacia Chiappano,pharmacy,44.4032909005142,8.6850403,"{3.0,4.0,3.0,5.0,2.0,3.0,2.0,2.0,2.0,2.0}",,,,,
469788551,Gerrard Place / Chinatown,bus-stop,51.5126792991708,-0.1303118,"{3.0,4.0,3.0,5.0,2.0,3.0,2.0,2.0,2.0,2.0}",,,,,
7174405985,CDTM,supermarket,44.6146810005004,27.3103331,"{3.0,4.0,3.0,5.0,2.0,3.0,2.0,2.0,2.0,2.0}",,,,,
811486031,Ako Doma,restaurant,48.161198999899,17.083985,"{3.0,4.0,3.0,5.0,2.0,3.0,2.0,2.0,2.0,2.0}",,,,,
700016014,萬合國小,school,23.925326703692,120.409305635372,"{3.0,4.0,3.0,5.0,2.0,3.0,2.0,2.0,2.0,2.0}",,,,,
5916089192,Avenida Doutor Mário Soares (Codessais),bus-stop,41.7403087004655,-7.4612859,"{3.0,4.0,3.0,5.0,2.0,3.0,2.0,2.0,2.0,2.0}",,,,,
266112558,ایستگاه ابتدای طرق,bus-stop,36.200160299756,59.6463026,"{3.0,4.0,3.0,5.0,2.0,3.0,2.0,2.0,2.0,2.0}",,,,,
6076599151,De La Montaña Cafe,coffee-shop,14.1007839998017,-87.1829389,"{3.0,4.0,3.0,5.0,2.0,3.0,2.0,2.0,2.0,2.0}",,,,,
5754389674,"Diekirch, Friedhaff",bus-stop,49.891968099477,6.1347178,"{3.0,4.0,3.0,5.0,2.0,3.0,2.0,2.0,2.0,2.0}",,,,,
625205477,ビーバー公園,park,26.3784746004857,127.852906627274,"{3.0,4.0,3.0,5.0,2.0,3.0,2.0,2.0,2.0,2.0}",,,,,
589002637,Soppa & Sunt,restaurant,57.7033214006217,11.9625563,"{3.0,4.0,3.0,5.0,2.0,3.0,2.0,2.0,2.0,2.0}",,,,,
140949401,Reitanlage Zukowski,sports-centre,53.5967223928285,10.3744265278191,"{3.0,4.0,3.0,5.0,2.0,3.0,2.0,2.0,2.0,2.0}",,,,,
357882440,청담동성당앞,bus-stop,37.5202582999159,127.0492045,"{3.0,4.0,3.0,5.0,2.0,3.0,2.0,2.0,2.0,2.0}",,,,,
398616942,St Joseph's Catholic Primary School,school,51.4868447645989,0.00662939918470027,"{3.0,4.0,3.0,5.0,2.0,3.0,2.0,2.0,2.0,2.0}",,,,,
6123156535,Mina Shop,convenience-store,50.9493210992583,3.1206591,"{3.0,4.0,3.0,5.0,2.0,3.0,2.0,2.0,2.0,2.0}",,,,,
4755563053,불로대곡동행정복지센터,bus-stop,37.6170820999289,126.6882912,"{3.0,4.0,3.0,5.0,2.0,3.0,2.0,2.0,2.0,2.0}",,,,,
6780766019,Coquelle,bus-stop,51.0368964992431,2.4139252,"{3.0,4.0,3.0,5.0,2.0,3.0,2.0,2.0,2.0,2.0}",,,,,
6386569895,Les Vilains Garcons,restaurant,45.425656300422,-75.7169031,"{3.0,4.0,3.0,5.0,2.0,3.0,2.0,2.0,2.0,2.0}",,,,,
10106537253,Pont-Sur-Sambre Ferme Heurtebise,bus-stop,50.2181769994037,3.8152589,"{3.0,4.0,3.0,5.0,2.0,3.0,2.0,2.0,2.0,2.0}",,,,,
1423754879,はこぶね幼稚園,kindergarten,33.6218989995922,130.469804,"{3.0,4.0,3.0,5.0,2.0,3.0,2.0,2.0,2.0,2.0}",,,,,
7296730424,"Farmàcia Haro Porcar, Eva",pharmacy,42.2620015005041,3.1835172,"{3.0,4.0,3.0,5.0,2.0,3.0,2.0,2.0,2.0,2.0}",,,,,
5484980094,ΓΕΝΝΗΜΑΤΑ 3 (20),bus-stop,40.6530668003516,22.9175941,"{3.0,4.0,3.0,5.0,2.0,3.0,2.0,2.0,2.0,2.0}",,,,,
11256502246,滨河东里,bus-stop,39.7464884002325,116.3388709,"{3.0,4.0,3.0,5.0,2.0,3.0,2.0,2.0,2.0,2.0}",,,,,
7079574285,St. Michael i.L. ASFINAG,bus-stop,47.1088682001387,13.5895313,"{3.0,4.0,3.0,5.0,2.0,3.0,2.0,2.0,2.0,2.0}",,,,,
429955691,Taverna Thessaloniki,restaurant,54.1166114992053,9.9918977,"{3.0,4.0,3.0,5.0,2.0,3.0,2.0,2.0,2.0,2.0}",,,,,
588452828,Plaza de Armas Tinlape,park,-6.65679774969933,-77.8314584,"{3.0,4.0,3.0,5.0,2.0,3.0,2.0,2.0,2.0,2.0}",,,,,
6176371024,Syn Lok 2 Bak Kut Teh,restaurant,5.85277829945263,118.0724007,"{3.0,4.0,3.0,5.0,2.0,3.0,2.0,2.0,2.0,2.0}",,,,,
843746825,Duat Open Court,sports-centre,15.0101515999085,120.53603715,"{3.0,4.0,3.0,5.0,2.0,3.0,2.0,2.0,2.0,2.0}",,,,,
2331540315,大木戸,bus-stop,35.8435105997203,140.0078315,"{3.0,4.0,3.0,5.0,2.0,3.0,2.0,2.0,2.0,2.0}",,,,,
5849775397,Ecole Primaire EPP Soleil,school,4.76406069952425,-6.6763441,"{3.0,4.0,3.0,5.0,2.0,3.0,2.0,2.0,2.0,2.0}",,,,,
11067446124,École Primaire May Djangeuro,school,13.5502453997391,7.4698338,"{3.0,4.0,3.0,5.0,2.0,3.0,2.0,2.0,2.0,2.0}",,,,,
87507638,Sani Top Pub,pub,-29.5847169945047,29.2881842656664,"{3.0,4.0,3.0,5.0,2.0,3.0,2.0,2.0,2.0,2.0}",,,,,
856733745,Dott. Invernizzi Giuseppe,pharmacy,45.3026937004365,9.6560252,"{3.0,4.0,3.0,5.0,2.0,3.0,2.0,2.0,2.0,2.0}",,,,,
380983471,de Kraal,school,51.5353464721136,4.21463233989974,"{3.0,4.0,3.0,5.0,2.0,3.0,2.0,2.0,2.0,2.0}",,,,,
2517331601,Арніка,pharmacy,47.9622527999467,37.8803398,"{3.0,4.0,3.0,5.0,2.0,3.0,2.0,2.0,2.0,2.0}",,,,,
2787201107,McDonald's,fast-food,-33.9178125996755,150.9120971,"{3.0,4.0,3.0,5.0,2.0,3.0,2.0,2.0,2.0,2.0}",,,,,
1741354971,Dr. Balleitner,doctor,48.2074715998878,14.2576012,"{3.0,4.0,3.0,5.0,2.0,3.0,2.0,2.0,2.0,2.0}",,,,,
3962064351,Kageyo Primary School,school,-1.24264989988042,29.6092422,"{3.0,4.0,3.0,5.0,2.0,3.0,2.0,2.0,2.0,2.0}",,,,,
5652769337,Avicola La Pradera,supermarket,-0.219245899977725,-78.3553914,"{3.0,4.0,3.0,5.0,2.0,3.0,2.0,2.0,2.0,2.0}",,,,,
4693397260,Restaurant Parisien,restaurant,58.4167487009881,15.616989,"{3.0,4.0,3.0,5.0,2.0,3.0,2.0,2.0,2.0,2.0}",,,,,
2293255822,東玉川町,bus-stop,35.598005699698,139.6744867,"{3.0,4.0,3.0,5.0,2.0,3.0,2.0,2.0,2.0,2.0}",,,,,
10253931812,Пельмешка,coffee-shop,57.147299200333,33.1099432,"{3.0,4.0,3.0,5.0,2.0,3.0,2.0,2.0,2.0,2.0}",,,,,
1423905597,みやぎ原保育園,kindergarten,26.2094490001428,127.694197,"{3.0,4.0,3.0,5.0,2.0,3.0,2.0,2.0,2.0,2.0}",,,,,
3067875439,Bellevaux Chemin de Cligneval,bus-stop,50.4022838993643,6.0035683,"{3.0,4.0,3.0,5.0,2.0,3.0,2.0,2.0,2.0,2.0}",,,,,
10062007116,Заполье,bus-stop,59.3794977014202,29.4976956,"{3.0,4.0,3.0,5.0,2.0,3.0,2.0,2.0,2.0,2.0}",,,,,
469787262,Palmerston Road,bus-stop,51.6123031991581,-0.1106141,"{3.0,4.0,3.0,5.0,2.0,3.0,2.0,2.0,2.0,2.0}",,,,,
961560024,Parc de Bray,park,44.8006948157381,-0.542636683281115,"{3.0,4.0,3.0,5.0,2.0,3.0,2.0,2.0,2.0,2.0}",,,,,
19809385,The Stocks Inn,pub,50.8195041992818,-1.9793208,"{3.0,4.0,3.0,5.0,2.0,3.0,2.0,2.0,2.0,2.0}",,,,,
3805445611,Ąžuolų būda,bus-stop,54.706026999337,23.525676,"{3.0,4.0,3.0,5.0,2.0,3.0,2.0,2.0,2.0,2.0}",,,,,
368670909,우리마트,supermarket,35.8067749997169,128.509689,"{3.0,4.0,3.0,5.0,2.0,3.0,2.0,2.0,2.0,2.0}",,,,,
6159184719,John Joe’s,pub,52.7976363990843,-6.1597175,"{3.0,4.0,3.0,5.0,2.0,3.0,2.0,2.0,2.0,2.0}",,,,,
2979179658,Dr. Richard Petras,doctor,47.8883536999642,7.7213947,"{3.0,4.0,3.0,5.0,2.0,3.0,2.0,2.0,2.0,2.0}",,,,,
326093592,New Metropole,pub,49.5562484995562,5.8767203,"{3.0,4.0,3.0,5.0,2.0,3.0,2.0,2.0,2.0,2.0}",,,,,
753977962,المدرسة الإبتدائية صوغاس الجنوبية,school,36.0643200565608,9.94801374042578,"{3.0,4.0,3.0,5.0,2.0,3.0,2.0,2.0,2.0,2.0}",,,,,
1147837904,Escuela Primaria Ma. Guadalupe Ortega de Suarez,school,29.014379499465,-110.932265172305,"{3.0,4.0,3.0,5.0,2.0,3.0,2.0,2.0,2.0,2.0}",,,,,
8633753062,The Hop on Worth,pub,53.8678317991643,-1.904465,"{3.0,4.0,3.0,5.0,2.0,3.0,2.0,2.0,2.0,2.0}",,,,,
839703600,Sam & Sam Meats,supermarket,39.8584939693892,-75.3759569863995,"{3.0,4.0,3.0,5.0,2.0,3.0,2.0,2.0,2.0,2.0}",,,,,
171031890,OKQ8 Norsjö,convenience-store,64.9149054950565,19.4851896878042,"{3.0,4.0,3.0,5.0,2.0,3.0,2.0,2.0,2.0,2.0}",,,,,
570987242,Keesic Beach,park,51.0321636917602,-93.8584236093668,"{3.0,4.0,3.0,5.0,2.0,3.0,2.0,2.0,2.0,2.0}",,,,,
393641614,Highgate Infant School,school,52.757888228244,0.408155855410024,"{3.0,4.0,3.0,5.0,2.0,3.0,2.0,2.0,2.0,2.0}",,,,,
12087333,Puutarharanta,park,60.2949372902851,25.0136597359009,"{3.0,4.0,3.0,5.0,2.0,3.0,2.0,2.0,2.0,2.0}",,,,,
4584393589,Drudel 11,school,46.9515521001712,7.4415483,"{3.0,4.0,3.0,5.0,2.0,3.0,2.0,2.0,2.0,2.0}",,,,,
268207168,サンドラッグ,pharmacy,39.725083578372,140.107001029281,"{3.0,4.0,3.0,5.0,2.0,3.0,2.0,2.0,2.0,2.0}",,,,,
6507039243,Poole Rd at Beverly Dr (WB),bus-stop,35.7715770997136,-78.594839,"{3.0,4.0,3.0,5.0,2.0,3.0,2.0,2.0,2.0,2.0}",,,,,
6786724509,Карасі,bus-stop,55.3383150995311,28.2868801,"{3.0,4.0,3.0,5.0,2.0,3.0,2.0,2.0,2.0,2.0}",,,,,
3636076769,Abbotsford Village Medical Clinic,doctor,49.0393297996826,-122.2689263,"{3.0,4.0,3.0,5.0,2.0,3.0,2.0,2.0,2.0,2.0}",,,,,
3781603410,片貝,railway-station,36.3939497997769,139.0955133,"{3.0,4.0,3.0,5.0,2.0,3.0,2.0,2.0,2.0,2.0}",,,,,
1013848143,Roesmann's Imbiss-Ecke,fast-food,51.6407974603207,7.74915886341342,"{3.0,4.0,3.0,5.0,2.0,3.0,2.0,2.0,2.0,2.0}",,,,,
1099481504,Minimarket TyR,convenience-store,-34.9761393126068,-70.9977257720385,"{3.0,4.0,3.0,5.0,2.0,3.0,2.0,2.0,2.0,2.0}",,,,,
1610445961,Привокзальная площадь,bus-stop,52.4938016990883,39.9461328,"{3.0,4.0,3.0,5.0,2.0,3.0,2.0,2.0,2.0,2.0}",,,,,
2235412281,Herentals,railway-station,51.1809815992193,4.828734,"{3.0,4.0,3.0,5.0,2.0,3.0,2.0,2.0,2.0,2.0}",,,,,
9629084753,Bar do Romário,pub,-20.7871806003267,-41.3906094,"{3.0,4.0,3.0,5.0,2.0,3.0,2.0,2.0,2.0,2.0}",,,,,
334900980,Европорт,mall,46.650533840082,32.5956934544069,"{3.0,4.0,3.0,5.0,2.0,3.0,2.0,2.0,2.0,2.0}",,,,,
2393439888,Grădinița de copii nr. 270,kindergarten,44.405423800514,26.0641319,"{3.0,4.0,3.0,5.0,2.0,3.0,2.0,2.0,2.0,2.0}",,,,,
10554937809,مختبر هيمن(تاقیگه ی هیمن),hospital,36.2022402997562,44.0358766,"{3.0,4.0,3.0,5.0,2.0,3.0,2.0,2.0,2.0,2.0}",,,,,
1934971634,Chez Mathias & Loukas,fast-food,50.7944017992865,4.334236,"{3.0,4.0,3.0,5.0,2.0,3.0,2.0,2.0,2.0,2.0}",,,,,
1134194770,Beyla,pub,-38.9550141363134,-68.0896508195031,"{3.0,4.0,3.0,5.0,2.0,3.0,2.0,2.0,2.0,2.0}",,,,,
5576807668,Institución Educativa No. 17603,school,-5.82130999968228,-78.8148,"{3.0,4.0,3.0,5.0,2.0,3.0,2.0,2.0,2.0,2.0}",,,,,
1827356046,Dame Nature,supermarket,47.5984961000314,7.2227828,"{3.0,4.0,3.0,5.0,2.0,3.0,2.0,2.0,2.0,2.0}",,,,,
357021342,Camoola St near Avington St stop 37,bus-stop,-27.4099992994683,152.9445533,"{3.0,4.0,3.0,5.0,2.0,3.0,2.0,2.0,2.0,2.0}",,,,,
7525437684,Eisenhower,bus-stop,43.9392082005346,4.797499,"{3.0,4.0,3.0,5.0,2.0,3.0,2.0,2.0,2.0,2.0}",,,,,
856470466,Вельбівненська ЗОШ І -ІІІ ступенів,school,50.3498311218688,26.5736149009264,"{3.0,4.0,3.0,5.0,2.0,3.0,2.0,2.0,2.0,2.0}",,,,,
5370744321,Carrefour,supermarket,44.883137900479,8.8566598,"{3.0,4.0,3.0,5.0,2.0,3.0,2.0,2.0,2.0,2.0}",,,,,
2095583338,Depåvägen,bus-stop,65.6102380981928,22.1357136,"{3.0,4.0,3.0,5.0,2.0,3.0,2.0,2.0,2.0,2.0}",,,,,
3891385122,Lekáreň Trnávka,pharmacy,48.1689503998971,17.1616158,"{3.0,4.0,3.0,5.0,2.0,3.0,2.0,2.0,2.0,2.0}",,,,,
4569933974,Coconut Grill,restaurant,19.7235375003589,-155.0624885,"{3.0,4.0,3.0,5.0,2.0,3.0,2.0,2.0,2.0,2.0}",,,,,
3864715158,Apteka Św. Mikołaja,pharmacy,49.8199797994937,19.0411214,"{3.0,4.0,3.0,5.0,2.0,3.0,2.0,2.0,2.0,2.0}",,,,,
890137989,Prince Town,supermarket,9.78382249355827,125.495517779154,"{3.0,4.0,3.0,5.0,2.0,3.0,2.0,2.0,2.0,2.0}",,,,,
10909125986,Hamar Shop,convenience-store,55.7040798996668,12.5292065,"{3.0,4.0,3.0,5.0,2.0,3.0,2.0,2.0,2.0,2.0}",,,,,
8865868885,Kings Garden,fast-food,51.3506114991934,0.2568543,"{3.0,4.0,3.0,5.0,2.0,3.0,2.0,2.0,2.0,2.0}",,,,,
413901276,三ツ葉薬局,pharmacy,35.8441526156031,139.942135891171,"{3.0,4.0,3.0,5.0,2.0,3.0,2.0,2.0,2.0,2.0}",,,,,
1792487342,"López Martínez, Eduardo",pharmacy,41.6484789004575,-0.88942,"{3.0,4.0,3.0,5.0,2.0,3.0,2.0,2.0,2.0,2.0}",,,,,
2402837922,Legends Bar and Grill,restaurant,40.6511576003514,-111.5074688,"{3.0,4.0,3.0,5.0,2.0,3.0,2.0,2.0,2.0,2.0}",,,,,
7326539597,Farmàcia M. Carmen Serramià Bruxola,pharmacy,41.3231060004266,2.0866985,"{3.0,4.0,3.0,5.0,2.0,3.0,2.0,2.0,2.0,2.0}",,,,,
1429385473,Liceo Cornelio Tacito,school,41.9106139004794,12.4529542,"{3.0,4.0,3.0,5.0,2.0,3.0,2.0,2.0,2.0,2.0}",,,,,
9042461417,Le Vigne Bio Bar & Enoteca,restaurant,44.6373095004988,7.9332023,"{3.0,4.0,3.0,5.0,2.0,3.0,2.0,2.0,2.0,2.0}",,,,,
7998194832,"Rua Jussara, 211",bus-stop,-23.6114389999813,-46.62197,"{3.0,4.0,3.0,5.0,2.0,3.0,2.0,2.0,2.0,2.0}",,,,,
9228845154,新宿小学校南,bus-stop,35.7624330997128,139.857238,"{3.0,4.0,3.0,5.0,2.0,3.0,2.0,2.0,2.0,2.0}",,,,,
3184440484,Marxzell Bahnhof,bus-stop,48.8633284997262,8.4476309,"{3.0,4.0,3.0,5.0,2.0,3.0,2.0,2.0,2.0,2.0}",,,,,
6154596916,サイゼリヤ,restaurant,33.5770629995914,130.256518,"{3.0,4.0,3.0,5.0,2.0,3.0,2.0,2.0,2.0,2.0}",,,,,
4089924193,Griechisches Restaurant Rhodos,restaurant,52.1730425991042,11.7473352,"{3.0,4.0,3.0,5.0,2.0,3.0,2.0,2.0,2.0,2.0}",,,,,
9117157040,ОМОН,bus-stop,57.9494340007499,59.9929372,"{3.0,4.0,3.0,5.0,2.0,3.0,2.0,2.0,2.0,2.0}",,,,,
724676922,Collège de Sérékalé,college,9.91975838128527,3.05093283522176,"{3.0,4.0,3.0,5.0,2.0,3.0,2.0,2.0,2.0,2.0}",,,,,
9084123397,Детская поликлиника (ул. Монтажников),bus-stop,55.9852604997818,92.9479505,"{3.0,4.0,3.0,5.0,2.0,3.0,2.0,2.0,2.0,2.0}",,,,,
4568138042,Пшеницына,bus-stop,43.3103517005415,132.0945137,"{3.0,4.0,3.0,5.0,2.0,3.0,2.0,2.0,2.0,2.0}",,,,,
261175504,Macalgha Grammar School,school,8.34124749939125,-13.1956625,"{3.0,4.0,3.0,5.0,2.0,3.0,2.0,2.0,2.0,2.0}",,,,,
631867419,Ligota Piękna,bus-stop,51.2277546992119,17.055246,"{3.0,4.0,3.0,5.0,2.0,3.0,2.0,2.0,2.0,2.0}",,,,,
6009131608,เอชเค เป็ดย่างอาหารจีน,restaurant,16.4325530000736,102.8288394,"{3.0,4.0,3.0,5.0,2.0,3.0,2.0,2.0,2.0,2.0}",,,,,
502401130,Kingsley Drive,bus-stop,52.9626035990868,-1.0733334,"{3.0,4.0,3.0,5.0,2.0,3.0,2.0,2.0,2.0,2.0}",,,,,
129493399,Skwer Dobrego Maharadży,park,52.2104017596819,20.9734173529967,"{3.0,4.0,3.0,5.0,2.0,3.0,2.0,2.0,2.0,2.0}",,,,,
4316939392,Bernsdorf Buchenwegsiedlung,bus-stop,51.3803087991891,14.0699396,"{3.0,4.0,3.0,5.0,2.0,3.0,2.0,2.0,2.0,2.0}",,,,,
11016265868,Tigo,fast-food,51.8141523991351,5.2472003,"{3.0,4.0,3.0,5.0,2.0,3.0,2.0,2.0,2.0,2.0}",,,,,
379599012,Centro Medico Usuluteco,clinic,13.3435546194956,-88.4376007016771,"{3.0,4.0,3.0,5.0,2.0,3.0,2.0,2.0,2.0,2.0}",,,,,
5632274570,Продукты,convenience-store,62.1071399015146,49.3321773,"{3.0,4.0,3.0,5.0,2.0,3.0,2.0,2.0,2.0,2.0}",,,,,
6624547150,Steven Coffee House,restaurant,4.22057789956825,103.4203091,"{3.0,4.0,3.0,5.0,2.0,3.0,2.0,2.0,2.0,2.0}",,,,,
10687540834,Безверхово,bus-stop,42.976076200536,131.4863782,"{3.0,4.0,3.0,5.0,2.0,3.0,2.0,2.0,2.0,2.0}",,,,,
2465548035,Harisa Kebab,fast-food,50.6860437993071,17.9796391,"{3.0,4.0,3.0,5.0,2.0,3.0,2.0,2.0,2.0,2.0}",,,,,
6183532987,Silva Reis com de alimentos,supermarket,-16.4424216004545,-39.0756623,"{3.0,4.0,3.0,5.0,2.0,3.0,2.0,2.0,2.0,2.0}",,,,,
3822138068,Kalona Brewing Company,pub,41.4833131004423,-91.7075553,"{3.0,4.0,3.0,5.0,2.0,3.0,2.0,2.0,2.0,2.0}",,,,,
9969459224,Restaurant la grâce,restaurant,13.540012399738,-2.4110692,"{3.0,4.0,3.0,5.0,2.0,3.0,2.0,2.0,2.0,2.0}",,,,,
6271094968,Lyttylä th E,bus-stop,61.5273984016926,21.8030485,"{3.0,4.0,3.0,5.0,2.0,3.0,2.0,2.0,2.0,2.0}",,,,,
4327047493,Consultorio Auxiliar Playa Muchavista,clinic,38.3923316000379,-0.4100957,"{3.0,4.0,3.0,5.0,2.0,3.0,2.0,2.0,2.0,2.0}",,,,,
722877844,มหาวิทยาลัยเทคโนโลยีราชมงคลสุวรรณภูมิ ศูนย์พระนครศรีอยุธยา วาสุกรี,university,14.3595219710543,100.565292573014,"{3.0,4.0,3.0,5.0,2.0,3.0,2.0,2.0,2.0,2.0}",,,,,
4425567193,салют,supermarket,51.2090129992149,24.7239817,"{3.0,4.0,3.0,5.0,2.0,3.0,2.0,2.0,2.0,2.0}",,,,,
6241092685,Dr. Buchal,doctor,52.540490499087,13.4114095,"{3.0,4.0,3.0,5.0,2.0,3.0,2.0,2.0,2.0,2.0}",,,,,
7690706793,Shankar Piles Clinic and Narayani Ayurveda,clinic,26.5898320001026,74.851899,"{3.0,4.0,3.0,5.0,2.0,3.0,2.0,2.0,2.0,2.0}",,,,,
2674820625,Ponto de onibus,bus-stop,-12.9783017002094,-38.4312542,"{3.0,4.0,3.0,5.0,2.0,3.0,2.0,2.0,2.0,2.0}",,,,,
308130326,Primarschulhaus Steinen,school,47.0502550586705,8.61201459726019,"{3.0,4.0,3.0,5.0,2.0,3.0,2.0,2.0,2.0,2.0}",,,,,
469765022,Brookdene Road,bus-stop,51.488740499174,0.103962,"{3.0,4.0,3.0,5.0,2.0,3.0,2.0,2.0,2.0,2.0}",,,,,
2930351587,南綱島住宅,bus-stop,35.540020899693,139.6501915,"{3.0,4.0,3.0,5.0,2.0,3.0,2.0,2.0,2.0,2.0}",,,,,
9663691807,Impératrice Eugénie,bus-stop,43.6917428005401,7.2341537,"{3.0,4.0,3.0,5.0,2.0,3.0,2.0,2.0,2.0,2.0}",,,,,
6241419373,"Askolan koulu, linnankoskentie",bus-stop,60.5264468017246,25.5837557,"{3.0,4.0,3.0,5.0,2.0,3.0,2.0,2.0,2.0,2.0}",,,,,
7850045872,U Filipa,supermarket,50.2461595993976,15.2025626,"{3.0,4.0,3.0,5.0,2.0,3.0,2.0,2.0,2.0,2.0}",,,,,
9267371870,Rasi Simba,college,-6.80757329970419,39.2596006,"{3.0,4.0,3.0,5.0,2.0,3.0,2.0,2.0,2.0,2.0}",,,,,
1614986,Cianthus Park,park,-27.675587831954,153.036572127398,"{3.0,4.0,3.0,5.0,2.0,3.0,2.0,2.0,2.0,2.0}",,,,,
10902025078,Virgen de la Caridad,pharmacy,-26.8105838995352,-65.2760635,"{3.0,4.0,3.0,5.0,2.0,3.0,2.0,2.0,2.0,2.0}",,,,,
4292677933,Il Patio,restaurant,35.2090368996665,25.7142158,"{3.0,4.0,3.0,5.0,2.0,3.0,2.0,2.0,2.0,2.0}",,,,,
11105074193,Fundeskärr,bus-stop,58.2216748008899,11.6104961,"{3.0,4.0,3.0,5.0,2.0,3.0,2.0,2.0,2.0,2.0}",,,,,
629145105,Domino's,fast-food,36.7568612998186,-84.1573298,"{3.0,4.0,3.0,5.0,2.0,3.0,2.0,2.0,2.0,2.0}",,,,,
572750582,Yummy Chinese,restaurant,40.7998202544945,-73.7337728897518,"{3.0,4.0,3.0,5.0,2.0,3.0,2.0,2.0,2.0,2.0}",,,,,
325993784,Fährhütte,bus-stop,47.0752138001457,9.4866139,"{3.0,4.0,3.0,5.0,2.0,3.0,2.0,2.0,2.0,2.0}",,,,,
3751292465,"Neverice, rázc. II.",bus-stop,48.3589618998509,18.2816483,"{3.0,4.0,3.0,5.0,2.0,3.0,2.0,2.0,2.0,2.0}",,,,,
2685751767,The Yacht Bar,pub,53.5474309991242,-6.101565,"{3.0,4.0,3.0,5.0,2.0,3.0,2.0,2.0,2.0,2.0}",,,,,
1803018128,הגן הזואולוגי/הרצל,bus-stop,32.0481419996068,34.769184,"{3.0,4.0,3.0,5.0,2.0,3.0,2.0,2.0,2.0,2.0}",,,,,
399001794,Allied school,school,30.4480096497017,72.3578523,"{3.0,4.0,3.0,5.0,2.0,3.0,2.0,2.0,2.0,2.0}",,,,,
5695448725,La Ruda,restaurant,-33.1287140995466,-62.094988,"{3.0,4.0,3.0,5.0,2.0,3.0,2.0,2.0,2.0,2.0}",,,,,
1684051652,Sv.Peter/Piranu šola,bus-stop,45.4710822004165,13.6838211,"{3.0,4.0,3.0,5.0,2.0,3.0,2.0,2.0,2.0,2.0}",,,,,
99241792,"ИТА ЮФУ, корпус Е",university,47.2047199941437,38.9441440971611,"{3.0,4.0,3.0,5.0,2.0,3.0,2.0,2.0,2.0,2.0}",,,,,
5321782021,الریف رستوران,restaurant,23.5917707003568,58.4002755,"{3.0,4.0,3.0,5.0,2.0,3.0,2.0,2.0,2.0,2.0}",,,,,
2986642415,Косыревка,bus-stop,52.6037185990856,39.4208772,"{3.0,4.0,3.0,5.0,2.0,3.0,2.0,2.0,2.0,2.0}",,,,,
1893434100,Všestudy,bus-stop,50.2897839993882,14.3417093,"{3.0,4.0,3.0,5.0,2.0,3.0,2.0,2.0,2.0,2.0}",,,,,
6534011052,The Waiting Room,pub,54.7800447993569,-1.5817644,"{3.0,4.0,3.0,5.0,2.0,3.0,2.0,2.0,2.0,2.0}",,,,,
9529223900,BROTHER ANDRES HIGH SCHOOL,school,22.8285872003902,91.0927282,"{3.0,4.0,3.0,5.0,2.0,3.0,2.0,2.0,2.0,2.0}",,,,,
1687083783,To Jinja Road,bus-stop,0.317513699967084,32.594284,"{3.0,4.0,3.0,5.0,2.0,3.0,2.0,2.0,2.0,2.0}",,,,,
369292361,Ratho Station Flyover Park,park,55.9395631567301,-3.39212326348753,"{3.0,4.0,3.0,5.0,2.0,3.0,2.0,2.0,2.0,2.0}",,,,,
489986893,桜公園,park,34.7888024648945,135.561399402843,"{3.0,4.0,3.0,5.0,2.0,3.0,2.0,2.0,2.0,2.0}",,,,,
8361777563,Unidade Basica de Saúde Santo Antônio,clinic,-19.2727884004351,-40.3442865,"{3.0,4.0,3.0,5.0,2.0,3.0,2.0,2.0,2.0,2.0}",,,,,
101599713,École primaire Pasteur,school,45.5645677794597,5.92605011520793,"{3.0,4.0,3.0,5.0,2.0,3.0,2.0,2.0,2.0,2.0}",,,,,
981575919,Sonnen Apotheke,pharmacy,51.891217589974,10.1800634405956,"{3.0,4.0,3.0,5.0,2.0,3.0,2.0,2.0,2.0,2.0}",,,,,
573867306,TK PGRI 81,kindergarten,-6.98809324971071,110.46690095,"{3.0,4.0,3.0,5.0,2.0,3.0,2.0,2.0,2.0,2.0}",,,,,
1978203648,Heerbaan,bus-stop,51.1685082992213,5.8285945,"{3.0,4.0,3.0,5.0,2.0,3.0,2.0,2.0,2.0,2.0}",,,,,
10895289117,Willy's Restaurant & Lounge,restaurant,53.5672194991263,-113.2695642,"{3.0,4.0,3.0,5.0,2.0,3.0,2.0,2.0,2.0,2.0}",,,,,
1407225666,Võidu,bus-stop,59.3561114014111,26.359889,"{3.0,4.0,3.0,5.0,2.0,3.0,2.0,2.0,2.0,2.0}",,,,,
1853707851,El Corral Campestre,restaurant,4.83908759951857,-74.0281392,"{3.0,4.0,3.0,5.0,2.0,3.0,2.0,2.0,2.0,2.0}",,,,,
5315596707,Walmart Supercenter,supermarket,35.2565599996701,-80.456989,"{3.0,4.0,3.0,5.0,2.0,3.0,2.0,2.0,2.0,2.0}",,,,,
4209888628,Arriero,restaurant,40.3382990003121,-3.7729949,"{3.0,4.0,3.0,5.0,2.0,3.0,2.0,2.0,2.0,2.0}",,,,,
1945922614,Carulla Express 24H,supermarket,10.4156862994604,-75.541644,"{3.0,4.0,3.0,5.0,2.0,3.0,2.0,2.0,2.0,2.0}",,,,,
368770099,로사정신과의원,doctor,36.3229751997691,127.4237414,"{3.0,4.0,3.0,5.0,2.0,3.0,2.0,2.0,2.0,2.0}",,,,,
7742066771,Pop-up 1,coffee-shop,55.9205847997546,12.2990482,"{3.0,4.0,3.0,5.0,2.0,3.0,2.0,2.0,2.0,2.0}",,,,,
793356851,CVS Pharmacy,pharmacy,45.4017986905107,-91.8504131265246,"{3.0,4.0,3.0,5.0,2.0,3.0,2.0,2.0,2.0,2.0}",,,,,
4085819979,Fristorp,bus-stop,58.2854854009223,12.4265295,"{3.0,4.0,3.0,5.0,2.0,3.0,2.0,2.0,2.0,2.0}",,,,,
526615659,New York Beer Project,restaurant,43.0897411789201,-78.6960823559442,"{3.0,4.0,3.0,5.0,2.0,3.0,2.0,2.0,2.0,2.0}",,,,,
599974942,"Piscina del Mexicano, La herradura",sports-centre,23.0038518003839,-82.382354,"{3.0,4.0,3.0,5.0,2.0,3.0,2.0,2.0,2.0,2.0}",,,,,
6271094958,Kärsämöntie P,bus-stop,61.4806352017016,21.7015037,"{3.0,4.0,3.0,5.0,2.0,3.0,2.0,2.0,2.0,2.0}",,,,,
7621605912,Irani Hospital,hospital,24.365038700308,92.0209683,"{3.0,4.0,3.0,5.0,2.0,3.0,2.0,2.0,2.0,2.0}",,,,,
867016987,Hököpinge skola,school,55.4927637456004,13.0052965758103,"{3.0,4.0,3.0,5.0,2.0,3.0,2.0,2.0,2.0,2.0}",,,,,
11188882110,Restaurant Pizzeria Mediterran,restaurant,47.3901590000781,8.0701885,"{3.0,4.0,3.0,5.0,2.0,3.0,2.0,2.0,2.0,2.0}",,,,,
2273381772,Deftinge Molenhof,bus-stop,50.7919583992869,3.8495667,"{3.0,4.0,3.0,5.0,2.0,3.0,2.0,2.0,2.0,2.0}",,,,,
357517475,Carlos Fermin Fitzcarrald,school,-12.5915149295362,-69.1885208379102,"{3.0,4.0,3.0,5.0,2.0,3.0,2.0,2.0,2.0,2.0}",,,,,
4872385862,Restaurant,restaurant,14.7312834998755,-17.4317821,"{3.0,4.0,3.0,5.0,2.0,3.0,2.0,2.0,2.0,2.0}",,,,,
2228432799,Bulevar Salburua/La Valletta,bus-stop,42.8453169005321,-2.6496458,"{3.0,4.0,3.0,5.0,2.0,3.0,2.0,2.0,2.0,2.0}",,,,,
8129003462,Gemeindeamt,bus-stop,47.0699755001468,10.9697716,"{3.0,4.0,3.0,5.0,2.0,3.0,2.0,2.0,2.0,2.0}",,,,,
4638625580,Piiri,bus-stop,59.3733686014178,27.2541253,"{3.0,4.0,3.0,5.0,2.0,3.0,2.0,2.0,2.0,2.0}",,,,,
11145311582,Светофор,supermarket,55.6769344996562,47.9376909,"{3.0,4.0,3.0,5.0,2.0,3.0,2.0,2.0,2.0,2.0}",,,,,
206087637,Ecole Arche de l'Alliance,school,-4.3796564739093,15.3686497009335,"{3.0,4.0,3.0,5.0,2.0,3.0,2.0,2.0,2.0,2.0}",,,,,
5150870098,宮の下,bus-stop,34.0647922996039,131.1062971,"{3.0,4.0,3.0,5.0,2.0,3.0,2.0,2.0,2.0,2.0}",,,,,
533811255,Whalley Road/Duckworth Arms,bus-stop,53.6596242991367,-2.3036631,"{3.0,4.0,3.0,5.0,2.0,3.0,2.0,2.0,2.0,2.0}",,,,,
583509827,云浮市第三小学,school,22.9252410691355,112.041003496694,"{3.0,4.0,3.0,5.0,2.0,3.0,2.0,2.0,2.0,2.0}",,,,,
9822620969,Biological Science Canteen,coffee-shop,22.4679594004004,91.7805708,"{3.0,4.0,3.0,5.0,2.0,3.0,2.0,2.0,2.0,2.0}",,,,,
1512624409,Dragon de Jade,restaurant,49.5052050995685,6.0078418,"{3.0,4.0,3.0,5.0,2.0,3.0,2.0,2.0,2.0,2.0}",,,,,
7738673646,Perennial Garden,garden,40.7502038003633,-73.8270797,"{3.0,4.0,3.0,5.0,2.0,3.0,2.0,2.0,2.0,2.0}",,,,,
4962254680,Food Stuff,convenience-store,23.5841540003572,58.4001635,"{3.0,4.0,3.0,5.0,2.0,3.0,2.0,2.0,2.0,2.0}",,,,,
4169383889,元気寿司 Genki Sushi,restaurant,22.2783600004044,114.17759,"{3.0,4.0,3.0,5.0,2.0,3.0,2.0,2.0,2.0,2.0}",,,,,
5154652135,Chalanbill,garden,24.5650652002932,89.1750703,"{3.0,4.0,3.0,5.0,2.0,3.0,2.0,2.0,2.0,2.0}",,,,,
2958644884,Colorado Athletic Club,sports-centre,39.5621874002066,-104.8645531,"{3.0,4.0,3.0,5.0,2.0,3.0,2.0,2.0,2.0,2.0}",,,,,
489793623,Colegio Público Román García,school,41.1190260322556,-0.50986929187906,"{3.0,4.0,3.0,5.0,2.0,3.0,2.0,2.0,2.0,2.0}",,,,,
6630507222,โรงเรียนบ้านวังผา,school,16.8325516001175,98.5376712,"{3.0,4.0,3.0,5.0,2.0,3.0,2.0,2.0,2.0,2.0}",,,,,
3863277578,Κολοκυθάς Ευάγγελος,pharmacy,38.9031668001119,22.4318638,"{3.0,4.0,3.0,5.0,2.0,3.0,2.0,2.0,2.0,2.0}",,,,,
4175379718,BP Roadhouse,bus-stop,-35.2603653999452,140.9134555,"{3.0,4.0,3.0,5.0,2.0,3.0,2.0,2.0,2.0,2.0}",,,,,
1255799826,Eppingen Bahnhof,bus-stop,49.1358794996587,8.9132615,"{3.0,4.0,3.0,5.0,2.0,3.0,2.0,2.0,2.0,2.0}",,,,,
6697371,اسکول کا علاقہ,school,33.5292814934366,71.0569373069901,"{3.0,4.0,3.0,5.0,2.0,3.0,2.0,2.0,2.0,2.0}",,,,,
6271017683,Pyykkönen P,bus-stop,64.6801342993046,25.0755528,"{3.0,4.0,3.0,5.0,2.0,3.0,2.0,2.0,2.0,2.0}",,,,,
993165146,Dunkin',fast-food,34.0139364996022,-84.61473385,"{3.0,4.0,3.0,5.0,2.0,3.0,2.0,2.0,2.0,2.0}",,,,,
2944649380,L'Osteria,restaurant,48.7417787997564,9.3050021,"{3.0,4.0,3.0,5.0,2.0,3.0,2.0,2.0,2.0,2.0}",,,,,
235155277,Instituto Miguel Sánchez López,school,37.7681695107077,-3.90186726527119,"{3.0,4.0,3.0,5.0,2.0,3.0,2.0,2.0,2.0,2.0}",,,,,
9686868694,G'imi Pub,pub,47.1301243001342,18.6719582,"{3.0,4.0,3.0,5.0,2.0,3.0,2.0,2.0,2.0,2.0}",,,,,
7466371303,CT Nursing Home,hospital,18.5968650002845,73.9001514,"{3.0,4.0,3.0,5.0,2.0,3.0,2.0,2.0,2.0,2.0}",,,,,
4231558468,Biocoop,supermarket,45.0509972004633,3.893182,"{3.0,4.0,3.0,5.0,2.0,3.0,2.0,2.0,2.0,2.0}",,,,,
4268396885,Viveres El Pan Nuestro,convenience-store,-0.107757699989001,-78.4498652,"{3.0,4.0,3.0,5.0,2.0,3.0,2.0,2.0,2.0,2.0}",,,,,
622229062,Fulham St,bus-stop,44.9915990004691,-93.1975005,"{3.0,4.0,3.0,5.0,2.0,3.0,2.0,2.0,2.0,2.0}",,,,,
2122344666,PLACEK - bez pszenicy i cukru,restaurant,50.2572986993952,19.022582,"{3.0,4.0,3.0,5.0,2.0,3.0,2.0,2.0,2.0,2.0}",,,,,
10794854882,Doktor Fazıl Küçük Parkı,bus-stop,41.0469026003973,28.9083315,"{3.0,4.0,3.0,5.0,2.0,3.0,2.0,2.0,2.0,2.0}",,,,,
687856768,Anytime Fitness,gym,42.0086210541742,-87.7623581130778,"{3.0,4.0,3.0,5.0,2.0,3.0,2.0,2.0,2.0,2.0}",,,,,
6260745688,Yusuf's,fast-food,49.3103214996159,7.0602179,"{3.0,4.0,3.0,5.0,2.0,3.0,2.0,2.0,2.0,2.0}",,,,,
134570809,Pharmacie Saint-Éloi,pharmacy,49.2965887902824,2.46328251909003,"{3.0,4.0,3.0,5.0,2.0,3.0,2.0,2.0,2.0,2.0}",,,,,
9207334417,Gosto,coffee-shop,40.4129736003217,-3.6993552,"{3.0,4.0,3.0,5.0,2.0,3.0,2.0,2.0,2.0,2.0}",,,,,
849468648,Alegria Central Elementary School,school,9.46612723845127,125.574653093568,"{3.0,4.0,3.0,5.0,2.0,3.0,2.0,2.0,2.0,2.0}",,,,,
305264783,Danshem Yelwa,hospital,9.53881070161498,9.54448441843794,"{3.0,4.0,3.0,5.0,2.0,3.0,2.0,2.0,2.0,2.0}",,,,,
1979648693,3,bus-stop,48.7347438997581,19.1595719,"{3.0,4.0,3.0,5.0,2.0,3.0,2.0,2.0,2.0,2.0}",,,,,
552679786,Samodzielny Zakład Opieki Zdrowotnej w Celestynowie,doctor,52.0584341827794,21.3837159871214,"{3.0,4.0,3.0,5.0,2.0,3.0,2.0,2.0,2.0,2.0}",,,,,
474834690,댄밖공원,park,35.5030099561473,129.418845829012,"{3.0,4.0,3.0,5.0,2.0,3.0,2.0,2.0,2.0,2.0}",,,,,
410895857,Kedai Pignik,restaurant,-7.56420250919276,110.82730001894,"{3.0,4.0,3.0,5.0,2.0,3.0,2.0,2.0,2.0,2.0}",,,,,
3330224,Военный госпиталь №773,hospital,59.7046359299206,30.412770657252,"{3.0,4.0,3.0,5.0,2.0,3.0,2.0,2.0,2.0,2.0}",,,,,
417666439,Forellenhof,restaurant,49.772021699505,11.4053482,"{3.0,4.0,3.0,5.0,2.0,3.0,2.0,2.0,2.0,2.0}",,,,,
9885669933,O'19,fast-food,48.8049738997407,2.1440764,"{3.0,4.0,3.0,5.0,2.0,3.0,2.0,2.0,2.0,2.0}",,,,,
668146231,Plaza Barrio Santa Candelaria,park,-21.9994429028619,-63.673440850645,"{3.0,4.0,3.0,5.0,2.0,3.0,2.0,2.0,2.0,2.0}",,,,,
10782800487,Дорожная улица,bus-stop,55.5145686995945,37.529671,"{3.0,4.0,3.0,5.0,2.0,3.0,2.0,2.0,2.0,2.0}",,,,,
1262208311,Palazzo di Città Cap.,bus-stop,45.0122487004671,7.8210254,"{3.0,4.0,3.0,5.0,2.0,3.0,2.0,2.0,2.0,2.0}",,,,,
285132383,Königstein,ferry,50.9195399992636,14.0759227,"{3.0,4.0,3.0,5.0,2.0,3.0,2.0,2.0,2.0,2.0}",,,,,
7027448605,Geppos Restaurante,restaurant,-3.72579269971505,-38.4917104,"{3.0,4.0,3.0,5.0,2.0,3.0,2.0,2.0,2.0,2.0}",,,,,
5772931354,Автосуши Автопицца,fast-food,53.1174169990924,46.5889545,"{3.0,4.0,3.0,5.0,2.0,3.0,2.0,2.0,2.0,2.0}",,,,,
6860929819,Alice-Apotheke am Bahnhof,pharmacy,50.7509856992946,9.266609,"{3.0,4.0,3.0,5.0,2.0,3.0,2.0,2.0,2.0,2.0}",,,,,
5879476818,Ludolph / Olivia,bus-stop,43.3846617005419,-80.4952098,"{3.0,4.0,3.0,5.0,2.0,3.0,2.0,2.0,2.0,2.0}",,,,,
9402559235,LA REBAJA PLUS MINIMARKET DROGUERIA NO 6 YOPAL,pharmacy,5.34848699948284,-72.401739,"{3.0,4.0,3.0,5.0,2.0,3.0,2.0,2.0,2.0,2.0}",,,,,
88119157,Школа №9,school,56.2021669002958,90.3515579043296,"{3.0,4.0,3.0,5.0,2.0,3.0,2.0,2.0,2.0,2.0}",,,,,
567462921,Schwabener Straße,bus-stop,48.1715213998965,11.8193096,"{3.0,4.0,3.0,5.0,2.0,3.0,2.0,2.0,2.0,2.0}",,,,,
5352169145,سوپر مارکت,supermarket,35.2336028996684,58.4711933,"{3.0,4.0,3.0,5.0,2.0,3.0,2.0,2.0,2.0,2.0}",,,,,
326963736,Gulshan,restaurant,51.2785020744012,-0.845977927666268,"{3.0,4.0,3.0,5.0,2.0,3.0,2.0,2.0,2.0,2.0}",,,,,
10651021269,西口通り,bus-stop,35.796972199716,139.7170696,"{3.0,4.0,3.0,5.0,2.0,3.0,2.0,2.0,2.0,2.0}",,,,,
435861202,Knighton Mead Primary Academy,school,52.6118319960397,-1.13477028977767,"{3.0,4.0,3.0,5.0,2.0,3.0,2.0,2.0,2.0,2.0}",,,,,
4077383574,Primary School,school,0.585521799938811,33.4830682,"{3.0,4.0,3.0,5.0,2.0,3.0,2.0,2.0,2.0,2.0}",,,,,
9913526118,もくれん耳鼻咽喉科,doctor,34.6402422996296,133.9131712,"{3.0,4.0,3.0,5.0,2.0,3.0,2.0,2.0,2.0,2.0}",,,,,
3575235195,Junior,restaurant,40.4724447003292,-8.6972425,"{3.0,4.0,3.0,5.0,2.0,3.0,2.0,2.0,2.0,2.0}",,,,,
950308216,唐山海港经济开发区第一小学,school,39.2386133988602,118.989549171489,"{3.0,4.0,3.0,5.0,2.0,3.0,2.0,2.0,2.0,2.0}",,,,,
8754506310,Çamtepe Et Lokantası,restaurant,39.5591363002062,26.5551185,"{3.0,4.0,3.0,5.0,2.0,3.0,2.0,2.0,2.0,2.0}",,,,,
5924510415,Maquis,pub,5.34851209948284,-4.0791514,"{3.0,4.0,3.0,5.0,2.0,3.0,2.0,2.0,2.0,2.0}",,,,,
1753113794,Vigna Murata,bus-stop,41.8274579004728,12.4811586,"{3.0,4.0,3.0,5.0,2.0,3.0,2.0,2.0,2.0,2.0}",,,,,
6661640486,محل مواد غدائية,supermarket,32.5886347995922,14.0431359,"{3.0,4.0,3.0,5.0,2.0,3.0,2.0,2.0,2.0,2.0}",,,,,
277932567,Escola Básica da Encosta do Sol,school,39.4065063756754,-9.1299898723381,"{3.0,4.0,3.0,5.0,2.0,3.0,2.0,2.0,2.0,2.0}",,,,,
7131464259,ADELIANOS KAMPOS,bus-stop,35.3728081996792,24.5455626,"{3.0,4.0,3.0,5.0,2.0,3.0,2.0,2.0,2.0,2.0}",,,,,
9554990147,Walls Crescent,bus-stop,-37.7342362005132,142.0025906,"{3.0,4.0,3.0,5.0,2.0,3.0,2.0,2.0,2.0,2.0}",,,,,
10010591828,Jharke Thaal Khaja Ghar,restaurant,27.7464719999746,85.319948,"{3.0,4.0,3.0,5.0,2.0,3.0,2.0,2.0,2.0,2.0}",,,,,
2993763218,Euro Market,convenience-store,50.212443999405,19.7472892,"{3.0,4.0,3.0,5.0,2.0,3.0,2.0,2.0,2.0,2.0}",,,,,
502337759,Tealby Street,bus-stop,53.2154993990975,-0.5459718,"{3.0,4.0,3.0,5.0,2.0,3.0,2.0,2.0,2.0,2.0}",,,,,
4160460289,Café Alee,restaurant,13.7367499997601,106.9918564,"{3.0,4.0,3.0,5.0,2.0,3.0,2.0,2.0,2.0,2.0}",,,,,
3877230437,Suehrio Sushi,restaurant,40.5252589003359,-105.027161,"{3.0,4.0,3.0,5.0,2.0,3.0,2.0,2.0,2.0,2.0}",,,,,
772900128,"Amado Fernandez, Sr. Central School",school,6.68722036748165,124.687452521179,"{3.0,4.0,3.0,5.0,2.0,3.0,2.0,2.0,2.0,2.0}",,,,,
357101124,Berkeley High School,school,33.2018507995876,-80.0264455,"{3.0,4.0,3.0,5.0,2.0,3.0,2.0,2.0,2.0,2.0}",,,,,
847727913,Brocklesby Park CC,sports-centre,53.5849209482182,-0.288324280062119,"{3.0,4.0,3.0,5.0,2.0,3.0,2.0,2.0,2.0,2.0}",,,,,
591418919,Πλατεία Γιολδάση,park,39.360179545205,21.9269454614692,"{3.0,4.0,3.0,5.0,2.0,3.0,2.0,2.0,2.0,2.0}",,,,,
391412082,大山脳神経外科クリニック,clinic,32.0687145462319,131.489380184558,"{3.0,4.0,3.0,5.0,2.0,3.0,2.0,2.0,2.0,2.0}",,,,,
3376533421,Bønes,bus-stop,68.6558519972082,15.335468,"{3.0,4.0,3.0,5.0,2.0,3.0,2.0,2.0,2.0,2.0}",,,,,
8850842815,Hasen Apotheke Allach,pharmacy,48.1890845998922,11.4677564,"{3.0,4.0,3.0,5.0,2.0,3.0,2.0,2.0,2.0,2.0}",,,,,
502591244,Shieldfield,bus-stop,54.9789606994142,-1.6012007,"{3.0,4.0,3.0,5.0,2.0,3.0,2.0,2.0,2.0,2.0}",,,,,
441314948,"Alteglofsheim, Adolph-Kolping-Straße",bus-stop,48.9273908997103,12.198718,"{3.0,4.0,3.0,5.0,2.0,3.0,2.0,2.0,2.0,2.0}",,,,,
2262375008,矢まと,restaurant,35.6976648997068,139.7733665,"{3.0,4.0,3.0,5.0,2.0,3.0,2.0,2.0,2.0,2.0}",,,,,
4523070491,Al Antojo Del Cocinero,restaurant,-34.6148390998088,-68.3410931,"{3.0,4.0,3.0,5.0,2.0,3.0,2.0,2.0,2.0,2.0}",,,,,
303800312,Пузата Хата,coffee-shop,48.4629676998253,35.04718,"{3.0,4.0,3.0,5.0,2.0,3.0,2.0,2.0,2.0,2.0}",,,,,
10146607137,ちょこざっぷ,gym,35.7059951997076,139.7757912,"{3.0,4.0,3.0,5.0,2.0,3.0,2.0,2.0,2.0,2.0}",,,,,
632174915,Grundschule Erwin-Welke-Schule,school,51.2326963539167,7.63953566441514,"{3.0,4.0,3.0,5.0,2.0,3.0,2.0,2.0,2.0,2.0}",,,,,
4230169993,R. Overbeek,bus-stop,51.9576649991212,4.8771693,"{3.0,4.0,3.0,5.0,2.0,3.0,2.0,2.0,2.0,2.0}",,,,,
3331403599,399 Massey Road,bus-stop,-36.9680090003381,174.8235024,"{3.0,4.0,3.0,5.0,2.0,3.0,2.0,2.0,2.0,2.0}",,,,,
11370516576,東勝山中央,bus-stop,38.295898400024,140.861904,"{3.0,4.0,3.0,5.0,2.0,3.0,2.0,2.0,2.0,2.0}",,,,,
5960264110,Centre Medico Social la Délivrance,doctor,5.29838289948613,-3.9509824,"{3.0,4.0,3.0,5.0,2.0,3.0,2.0,2.0,2.0,2.0}",,,,,
8356852809,Plantin Mini Market,convenience-store,51.2108012992146,4.4246895,"{3.0,4.0,3.0,5.0,2.0,3.0,2.0,2.0,2.0,2.0}",,,,,
660151430,ファミリーマート海津平田町店,convenience-store,35.2566830390742,136.639494663048,"{3.0,4.0,3.0,5.0,2.0,3.0,2.0,2.0,2.0,2.0}",,,,,
354389528,McCrary Rost Clinic,doctor,42.3967653005121,-94.6220583,"{3.0,4.0,3.0,5.0,2.0,3.0,2.0,2.0,2.0,2.0}",,,,,
11117106752,Strandlid,bus-stop,57.523985500528,12.0816592,"{3.0,4.0,3.0,5.0,2.0,3.0,2.0,2.0,2.0,2.0}",,,,,
9053937779,La Hacienda,restaurant,15.978480000022,120.4759951,"{3.0,4.0,3.0,5.0,2.0,3.0,2.0,2.0,2.0,2.0}",,,,,
4611469267,Верный,supermarket,55.3982835995522,37.7759518,"{3.0,4.0,3.0,5.0,2.0,3.0,2.0,2.0,2.0,2.0}",,,,,
669865727,Complejo Deportivo Rolan,sports-centre,-1.05008995646707,-80.445050548045,"{3.0,4.0,3.0,5.0,2.0,3.0,2.0,2.0,2.0,2.0}",,,,,
2775756390,Le Bourg,bus-stop,46.539146100251,4.5111216,"{3.0,4.0,3.0,5.0,2.0,3.0,2.0,2.0,2.0,2.0}",,,,,
10117646170,Café Amor & Art,coffee-shop,42.3106250005071,-83.0106268,"{3.0,4.0,3.0,5.0,2.0,3.0,2.0,2.0,2.0,2.0}",,,,,
1828574790,Cafe Sandbichler,coffee-shop,47.4434381000663,12.0482422,"{3.0,4.0,3.0,5.0,2.0,3.0,2.0,2.0,2.0,2.0}",,,,,
1367600772,Bar Raval,restaurant,52.4980480990882,13.436371,"{3.0,4.0,3.0,5.0,2.0,3.0,2.0,2.0,2.0,2.0}",,,,,
6199579537,Tostao’,coffee-shop,4.65141389953296,-74.0581627,"{3.0,4.0,3.0,5.0,2.0,3.0,2.0,2.0,2.0,2.0}",,,,,
636726651,ヨークベニマル,supermarket,36.8415301765043,140.782522375621,"{3.0,4.0,3.0,5.0,2.0,3.0,2.0,2.0,2.0,2.0}",,,,,
4939133503,Prospect at 30th,bus-stop,39.0717827001363,-94.5528459,"{3.0,4.0,3.0,5.0,2.0,3.0,2.0,2.0,2.0,2.0}",,,,,
25833396,Лікарня №16,hospital,47.9944445107056,37.8963973962632,"{3.0,4.0,3.0,5.0,2.0,3.0,2.0,2.0,2.0,2.0}",,,,,
10816280305,გუდვილი,supermarket,41.7191261004637,44.7412776,"{3.0,4.0,3.0,5.0,2.0,3.0,2.0,2.0,2.0,2.0}",,,,,
53213559,Na statku U Kašných,pub,49.9853608445777,18.0507669408975,"{3.0,4.0,3.0,5.0,2.0,3.0,2.0,2.0,2.0,2.0}",,,,,
484012442,CVS Pharmacy,pharmacy,32.2951840177534,-95.2999167572527,"{3.0,4.0,3.0,5.0,2.0,3.0,2.0,2.0,2.0,2.0}",,,,,
2836327509,Парк Победы (ул. Юбилейная),bus-stop,53.5092497991204,49.2772357,"{3.0,4.0,3.0,5.0,2.0,3.0,2.0,2.0,2.0,2.0}",,,,,
627666896,Grace Park,park,44.9229981376363,-89.619927299144,"{3.0,4.0,3.0,5.0,2.0,3.0,2.0,2.0,2.0,2.0}",,,,,
10020929317,Pasta in Corso,restaurant,41.8988322004785,12.4676063,"{3.0,4.0,3.0,5.0,2.0,3.0,2.0,2.0,2.0,2.0}",,,,,
1289159219,Oppset nord,bus-stop,60.4351270017121,12.011501,"{3.0,4.0,3.0,5.0,2.0,3.0,2.0,2.0,2.0,2.0}",,,,,
835146470,Via Roen Asilo - Roenstraße Kindergarten,bus-stop,46.4972852002587,11.3360031,"{3.0,4.0,3.0,5.0,2.0,3.0,2.0,2.0,2.0,2.0}",,,,,
923128793,"Scuola dell'Infanzia e Primaria ""Oriani - DIaz""",school,40.8738864952991,14.0749937700914,"{3.0,4.0,3.0,5.0,2.0,3.0,2.0,2.0,2.0,2.0}",,,,,
247556441,Parc de la Mairie,park,48.7119872049441,6.16383692913053,"{3.0,4.0,3.0,5.0,2.0,3.0,2.0,2.0,2.0,2.0}",,,,,
2266501011,Farmacia Chavarría Escazú,pharmacy,9.92946589943461,-84.1341173,"{3.0,4.0,3.0,5.0,2.0,3.0,2.0,2.0,2.0,2.0}",,,,,
366219843,CCCS IT / UNC,college,39.7295426502287,-104.883506812196,"{3.0,4.0,3.0,5.0,2.0,3.0,2.0,2.0,2.0,2.0}",,,,,
4492908525,Restaurante Roma,restaurant,40.2675870003029,-5.9102187,"{3.0,4.0,3.0,5.0,2.0,3.0,2.0,2.0,2.0,2.0}",,,,,
618128604,Kindergarten und Kinderkrippe Arche Noah,kindergarten,48.2094757998873,8.7585252,"{3.0,4.0,3.0,5.0,2.0,3.0,2.0,2.0,2.0,2.0}",,,,,
4717740493,Pizza Rock,restaurant,24.0776066003278,120.5370251,"{3.0,4.0,3.0,5.0,2.0,3.0,2.0,2.0,2.0,2.0}",,,,,
392097954,Mr. Sub,fast-food,43.7550157005391,-79.3517265,"{3.0,4.0,3.0,5.0,2.0,3.0,2.0,2.0,2.0,2.0}",,,,,
895953088,green space,park,7.06169873231698,-76.4325152100404,"{3.0,4.0,3.0,5.0,2.0,3.0,2.0,2.0,2.0,2.0}",,,,,
7327130686,Steiermarkstraße,bus-stop,51.3844831991885,6.7719325,"{3.0,4.0,3.0,5.0,2.0,3.0,2.0,2.0,2.0,2.0}",,,,,
389303451,セブンイレブン,convenience-store,35.9734601222285,140.13308992565,"{3.0,4.0,3.0,5.0,2.0,3.0,2.0,2.0,2.0,2.0}",,,,,
46585854,避风塘,restaurant,30.2722298997161,120.1611174,"{3.0,4.0,3.0,5.0,2.0,3.0,2.0,2.0,2.0,2.0}",,,,,
577529844,Kolej Komuniti Bandar Penawar,college,1.56255306430161,104.218123888675,"{3.0,4.0,3.0,5.0,2.0,3.0,2.0,2.0,2.0,2.0}",,,,,
1227663926,ファミリーマート,convenience-store,33.8606305476169,130.712169496461,"{3.0,4.0,3.0,5.0,2.0,3.0,2.0,2.0,2.0,2.0}",,,,,
10981115376,La Piada da Pitbull,fast-food,44.4653074005104,11.5030721,"{3.0,4.0,3.0,5.0,2.0,3.0,2.0,2.0,2.0,2.0}",,,,,
3915960306,本田一丁目,bus-stop,36.0259660997381,139.7210245,"{3.0,4.0,3.0,5.0,2.0,3.0,2.0,2.0,2.0,2.0}",,,,,
6098568023,Ayyappan's Homoeo Clinic,clinic,9.00071639940143,76.5448182,"{3.0,4.0,3.0,5.0,2.0,3.0,2.0,2.0,2.0,2.0}",,,,,
2163887374,Tampereen linja-autoasema,bus-stop,61.4936991016992,23.7694174,"{3.0,4.0,3.0,5.0,2.0,3.0,2.0,2.0,2.0,2.0}",,,,,
560769244,Villa Costa,park,38.1426216727459,13.3383392499698,"{3.0,4.0,3.0,5.0,2.0,3.0,2.0,2.0,2.0,2.0}",,,,,
1837850915,École primaire Saulce sur Rhone,school,44.7022710004939,4.8003385,"{3.0,4.0,3.0,5.0,2.0,3.0,2.0,2.0,2.0,2.0}",,,,,
3914318584,7-Eleven,convenience-store,22.3031851004039,114.1724402,"{3.0,4.0,3.0,5.0,2.0,3.0,2.0,2.0,2.0,2.0}",,,,,
8889443060,Arboretum Park,park,-34.3162179997497,148.2951027,"{3.0,4.0,3.0,5.0,2.0,3.0,2.0,2.0,2.0,2.0}",,,,,
891238222,Central Beach,beach,57.5889518523733,-3.89121984277328,"{3.0,4.0,3.0,5.0,2.0,3.0,2.0,2.0,2.0,2.0}",,,,,
9382852708,Troya,coffee-shop,43.5374287005417,-5.6654751,"{3.0,4.0,3.0,5.0,2.0,3.0,2.0,2.0,2.0,2.0}",,,,,
7063639362,Mata Kaulan Ji Mission Hospital,hospital,31.6185834996252,74.8952566,"{3.0,4.0,3.0,5.0,2.0,3.0,2.0,2.0,2.0,2.0}",,,,,
33556062,Musauer Alm,restaurant,47.5092466626818,10.6397260742755,"{3.0,4.0,3.0,5.0,2.0,3.0,2.0,2.0,2.0,2.0}",,,,,
8748457711,Pure Pharmacy,pharmacy,49.2636908996273,-123.2074439,"{3.0,4.0,3.0,5.0,2.0,3.0,2.0,2.0,2.0,2.0}",,,,,
7801752279,Fauvettes,bus-stop,42.6837724005261,2.9356361,"{3.0,4.0,3.0,5.0,2.0,3.0,2.0,2.0,2.0,2.0}",,,,,
6865896926,尧王桥,bus-stop,36.6970508998115,118.4878398,"{3.0,4.0,3.0,5.0,2.0,3.0,2.0,2.0,2.0,2.0}",,,,,
677002408,Matarapuistikko,park,60.4547541981878,22.3279717705714,"{3.0,4.0,3.0,5.0,2.0,3.0,2.0,2.0,2.0,2.0}",,,,,
305539421,Детский сад №15 «Родничок»,kindergarten,51.1946097485775,58.2772358306033,"{3.0,4.0,3.0,5.0,2.0,3.0,2.0,2.0,2.0,2.0}",,,,,
9836605357,春雨路,bus-stop,28.9142557998464,105.4316604,"{3.0,4.0,3.0,5.0,2.0,3.0,2.0,2.0,2.0,2.0}",,,,,
367674678,High St / Adderley St,bus-stop,52.4738092990889,-1.8811121,"{3.0,4.0,3.0,5.0,2.0,3.0,2.0,2.0,2.0,2.0}",,,,,
2615883679,Rose Pharmacy,pharmacy,12.0688855995867,124.5934718,"{3.0,4.0,3.0,5.0,2.0,3.0,2.0,2.0,2.0,2.0}",,,,,
7798894714,Hearty's Chinese Restaurant,restaurant,39.0743905001367,-76.8497889,"{3.0,4.0,3.0,5.0,2.0,3.0,2.0,2.0,2.0,2.0}",,,,,
643617150,Jardin Zaragoza,park,23.6348497472107,-103.637976966935,"{3.0,4.0,3.0,5.0,2.0,3.0,2.0,2.0,2.0,2.0}",,,,,
8428172111,松岭路世园大道,bus-stop,36.1829288997542,120.5049137,"{3.0,4.0,3.0,5.0,2.0,3.0,2.0,2.0,2.0,2.0}",,,,,
658946683,César Chávez Academy,school,38.2828398477028,-104.650287672365,"{3.0,4.0,3.0,5.0,2.0,3.0,2.0,2.0,2.0,2.0}",,,,,
10221012103,"Ballendorf, Alte Dorfstr",bus-stop,51.1348009992268,12.6965325,"{3.0,4.0,3.0,5.0,2.0,3.0,2.0,2.0,2.0,2.0}",,,,,
7418476078,Coop Prix Holmlia,supermarket,59.8268908015738,10.7841648,"{3.0,4.0,3.0,5.0,2.0,3.0,2.0,2.0,2.0,2.0}",,,,,
10733764317,Edinger-Richardson,bus-stop,33.7306905995944,-117.9258683,"{3.0,4.0,3.0,5.0,2.0,3.0,2.0,2.0,2.0,2.0}",,,,,
1044010572,Randaberg vgs. (A),bus-stop,58.997339001262,5.655687,"{3.0,4.0,3.0,5.0,2.0,3.0,2.0,2.0,2.0,2.0}",,,,,
3066057822,Oxxo,convenience-store,-12.0887745001212,-77.064753,"{3.0,4.0,3.0,5.0,2.0,3.0,2.0,2.0,2.0,2.0}",,,,,
367034880,Wilhelmstraße,bus-stop,51.6284986991561,6.7582119,"{3.0,4.0,3.0,5.0,2.0,3.0,2.0,2.0,2.0,2.0}",,,,,
7367326876,Åkerbyvägen södra,bus-stop,59.4484756014462,18.0687064,"{3.0,4.0,3.0,5.0,2.0,3.0,2.0,2.0,2.0,2.0}",,,,,
6009371009,An der Bieke,bus-stop,51.3997000991863,8.5882603,"{3.0,4.0,3.0,5.0,2.0,3.0,2.0,2.0,2.0,2.0}",,,,,
9216533255,Kursana,bus-stop,50.0695616994366,9.1523637,"{3.0,4.0,3.0,5.0,2.0,3.0,2.0,2.0,2.0,2.0}",,,,,
5559299419,松木,railway-station,26.9951502000584,112.5944888,"{3.0,4.0,3.0,5.0,2.0,3.0,2.0,2.0,2.0,2.0}",,,,,
11081971777,Driss Coaching,gym,46.9071786001801,6.3504121,"{3.0,4.0,3.0,5.0,2.0,3.0,2.0,2.0,2.0,2.0}",,,,,
4830853603,Stanley's Fish And Chips,restaurant,43.9986748005327,-79.4750977,"{3.0,4.0,3.0,5.0,2.0,3.0,2.0,2.0,2.0,2.0}",,,,,
427575535,Grundschule,school,49.9857778701088,10.3133535699276,"{3.0,4.0,3.0,5.0,2.0,3.0,2.0,2.0,2.0,2.0}",,,,,
326848081,"Центр развития творчества детей и юношества ""Созвездие""",school,54.55200009827,36.2726193652883,"{3.0,4.0,3.0,5.0,2.0,3.0,2.0,2.0,2.0,2.0}",,,,,
831733253,Rastanlage Breitenbach,park,50.7744307939507,8.02218882047843,"{3.0,4.0,3.0,5.0,2.0,3.0,2.0,2.0,2.0,2.0}",,,,,
2486103067,"Магазин ""СМАК""",convenience-store,53.9470709991764,86.7342161,"{3.0,4.0,3.0,5.0,2.0,3.0,2.0,2.0,2.0,2.0}",,,,,
5827504556,Gamle Kirkeskolen,school,60.1329514016547,10.2718985,"{3.0,4.0,3.0,5.0,2.0,3.0,2.0,2.0,2.0,2.0}",,,,,
9553392458,Шашу,coffee-shop,44.9950625004687,78.3579888,"{3.0,4.0,3.0,5.0,2.0,3.0,2.0,2.0,2.0,2.0}",,,,,
461421164,Panda Express,fast-food,33.4899441532175,-101.904468280205,"{3.0,4.0,3.0,5.0,2.0,3.0,2.0,2.0,2.0,2.0}",,,,,
6590862911,Палац Творчості,bus-stop,49.4283087995871,26.991748,"{3.0,4.0,3.0,5.0,2.0,3.0,2.0,2.0,2.0,2.0}",,,,,
1735050218,"Minusio, Ponte Navegna",bus-stop,46.1788052003139,8.824487,"{3.0,4.0,3.0,5.0,2.0,3.0,2.0,2.0,2.0,2.0}",,,,,
5878638538,La Parraca,restaurant,-34.5568484997971,-58.4683223,"{3.0,4.0,3.0,5.0,2.0,3.0,2.0,2.0,2.0,2.0}",,,,,
5804432729,Dainville,bus-stop,48.8597703997271,2.8636134,"{3.0,4.0,3.0,5.0,2.0,3.0,2.0,2.0,2.0,2.0}",,,,,
7656644228,MSU Strand Union,bus-stop,45.6655105003912,-111.047887,"{3.0,4.0,3.0,5.0,2.0,3.0,2.0,2.0,2.0,2.0}",,,,,
881965323,Don Juan Pimentel Elementary School,school,14.0798557309481,122.958940605688,"{3.0,4.0,3.0,5.0,2.0,3.0,2.0,2.0,2.0,2.0}",,,,,
4113616891,Полуфабрикаты,bus-stop,52.9770199990872,63.1068658,"{3.0,4.0,3.0,5.0,2.0,3.0,2.0,2.0,2.0,2.0}",,,,,
5834837779,Carrefour Express,convenience-store,51.2448281992093,4.4458267,"{3.0,4.0,3.0,5.0,2.0,3.0,2.0,2.0,2.0,2.0}",,,,,
11258375738,El Rincón del Bolón,restaurant,0.50656649994718,-80.0226524,"{3.0,4.0,3.0,5.0,2.0,3.0,2.0,2.0,2.0,2.0}",,,,,
3221379914,Zähmet,railway-station,37.7749963999506,62.5296195,"{3.0,4.0,3.0,5.0,2.0,3.0,2.0,2.0,2.0,2.0}",,,,,
975684567,Trollbackens förskola,school,64.7623866992067,20.8893984,"{3.0,4.0,3.0,5.0,2.0,3.0,2.0,2.0,2.0,2.0}",,,,,
353776096,Boundary Road at Postle Street stop 47,bus-stop,-27.5685437994522,153.0260283,"{3.0,4.0,3.0,5.0,2.0,3.0,2.0,2.0,2.0,2.0}",,,,,
10203222076,North Fwy @ Gillespie Rd,bus-stop,29.9274556997463,-95.4115552,"{3.0,4.0,3.0,5.0,2.0,3.0,2.0,2.0,2.0,2.0}",,,,,
1439705060,General Ricardos-Iglesia,bus-stop,40.3960259003195,-3.719238,"{3.0,4.0,3.0,5.0,2.0,3.0,2.0,2.0,2.0,2.0}",,,,,
357767826,Bay Beach,beach,33.8954524995986,-77.9522094,"{3.0,4.0,3.0,5.0,2.0,3.0,2.0,2.0,2.0,2.0}",,,,,
206802832,Roosevelt High School,school,40.3399958961027,-104.913265128525,"{3.0,4.0,3.0,5.0,2.0,3.0,2.0,2.0,2.0,2.0}",,,,,
11197159873,"Cornell Pharmacy O Cosmetic Khyatna Centre, Cornellhat School Market, Chattogram",pharmacy,22.3688965004026,91.7776147,"{3.0,4.0,3.0,5.0,2.0,3.0,2.0,2.0,2.0,2.0}",,,,,
4894435056,Un cafe,coffee-shop,-32.8861369995123,-68.8392759,"{3.0,4.0,3.0,5.0,2.0,3.0,2.0,2.0,2.0,2.0}",,,,,
1719265678,Bad Urach Kurmittelhaus,bus-stop,48.5050849998149,9.3772041,"{3.0,4.0,3.0,5.0,2.0,3.0,2.0,2.0,2.0,2.0}",,,,,
43055488,Birchwood Nature Park,park,53.2120565416549,-0.615312182505324,"{3.0,4.0,3.0,5.0,2.0,3.0,2.0,2.0,2.0,2.0}",,,,,
6241402222,Skogby Ö,bus-stop,59.9281825016029,23.3118927,"{3.0,4.0,3.0,5.0,2.0,3.0,2.0,2.0,2.0,2.0}",,,,,
623869801,Gymnase René Pallud,sports-centre,48.8587475997274,2.5282702,"{3.0,4.0,3.0,5.0,2.0,3.0,2.0,2.0,2.0,2.0}",,,,,
666373022,Grundschule Sulzbach,school,48.9624305459526,9.84916701234121,"{3.0,4.0,3.0,5.0,2.0,3.0,2.0,2.0,2.0,2.0}",,,,,
433143,Kallmyravägen,bus-stop,58.8998191012185,17.0926773,"{3.0,4.0,3.0,5.0,2.0,3.0,2.0,2.0,2.0,2.0}",,,,,
6042847519,Centro De Adultos 702,school,-33.7689301996493,-60.0980009,"{3.0,4.0,3.0,5.0,2.0,3.0,2.0,2.0,2.0,2.0}",,,,,
4458003044,Pharmacie Beau Philippe,pharmacy,48.0428777999275,3.793699,"{3.0,4.0,3.0,5.0,2.0,3.0,2.0,2.0,2.0,2.0}",,,,,
11039510908,"Paseky, Kukle, rozc. 1.0",bus-stop,49.2518003996302,14.2399363,"{3.0,4.0,3.0,5.0,2.0,3.0,2.0,2.0,2.0,2.0}",,,,,
1158076016,Kaka,fast-food,-29.9753273993198,-50.12018235,"{3.0,4.0,3.0,5.0,2.0,3.0,2.0,2.0,2.0,2.0}",,,,,
6364605781,Salchendorf Ludwigseck,bus-stop,50.7949107992864,8.0288887,"{3.0,4.0,3.0,5.0,2.0,3.0,2.0,2.0,2.0,2.0}",,,,,
26842558,Benderpark,park,51.3909141934697,7.08394599765561,"{3.0,4.0,3.0,5.0,2.0,3.0,2.0,2.0,2.0,2.0}",,,,,
10293151348,Стаси,supermarket,42.7712661005295,26.8778572,"{3.0,4.0,3.0,5.0,2.0,3.0,2.0,2.0,2.0,2.0}",,,,,
4624426305,Oxxo,convenience-store,24.0719231003282,-104.6582137,"{3.0,4.0,3.0,5.0,2.0,3.0,2.0,2.0,2.0,2.0}",,,,,
6530472561,Cafe Elena,fast-food,37.7936788999532,-122.3941594,"{3.0,4.0,3.0,5.0,2.0,3.0,2.0,2.0,2.0,2.0}",,,,,
16305299,Клініка Компаніївського фахового коледжу ветеринарної медицини,college,48.2241343458672,32.2048686961496,"{3.0,4.0,3.0,5.0,2.0,3.0,2.0,2.0,2.0,2.0}",,,,,
638056061,Clube Colorado,sports-centre,-20.3266442925195,-48.3068453040662,"{3.0,4.0,3.0,5.0,2.0,3.0,2.0,2.0,2.0,2.0}",,,,,
2042462228,Iéna,bus-stop,48.8649748997258,2.2951353,"{3.0,4.0,3.0,5.0,2.0,3.0,2.0,2.0,2.0,2.0}",,,,,
353681757,Harlaya,railway-station,26.8674124000725,72.7208476,"{3.0,4.0,3.0,5.0,2.0,3.0,2.0,2.0,2.0,2.0}",,,,,
471495521,Kingsmead Road,bus-stop,52.1939033991029,0.9850564,"{3.0,4.0,3.0,5.0,2.0,3.0,2.0,2.0,2.0,2.0}",,,,,
9027424095,天宁区法院/天宁区检察院,bus-stop,31.7918957996171,119.9926117,"{3.0,4.0,3.0,5.0,2.0,3.0,2.0,2.0,2.0,2.0}",,,,,
4051999911,Ipukku Tea House,coffee-shop,53.9606860991786,-1.0844071,"{3.0,4.0,3.0,5.0,2.0,3.0,2.0,2.0,2.0,2.0}",,,,,
7855959182,Dhiman Clinic,clinic,30.8302967996728,76.5807962,"{3.0,4.0,3.0,5.0,2.0,3.0,2.0,2.0,2.0,2.0}",,,,,
9291869652,附设站,bus-stop,36.4053179997782,117.1729928,"{3.0,4.0,3.0,5.0,2.0,3.0,2.0,2.0,2.0,2.0}",,,,,
1164623940,Mononono Educational Development Center,school,-25.0453040997726,27.18587345,"{3.0,4.0,3.0,5.0,2.0,3.0,2.0,2.0,2.0,2.0}",,,,,
9630995107,ファミリーマート那須塩原黒磯バイパス店,convenience-store,36.973260499845,140.0682315,"{3.0,4.0,3.0,5.0,2.0,3.0,2.0,2.0,2.0,2.0}",,,,,
2462679230,18-микрорайон,bus-stop,55.1865606994797,61.2865532,"{3.0,4.0,3.0,5.0,2.0,3.0,2.0,2.0,2.0,2.0}",,,,,
834182402,Vidyasadanam Model School,school,11.5077042628583,75.6557627474216,"{3.0,4.0,3.0,5.0,2.0,3.0,2.0,2.0,2.0,2.0}",,,,,
5359951964,Institución Educativa No. 24144,school,-14.0703000003087,-73.6401,"{3.0,4.0,3.0,5.0,2.0,3.0,2.0,2.0,2.0,2.0}",,,,,
6331817345,Arrêt de la Maison de Retraite,bus-stop,46.9118884001792,-1.3810753,"{3.0,4.0,3.0,5.0,2.0,3.0,2.0,2.0,2.0,2.0}",,,,,
10765291309,Sonic,fast-food,33.3505339995885,-86.6215091,"{3.0,4.0,3.0,5.0,2.0,3.0,2.0,2.0,2.0,2.0}",,,,,
8409145794,مطحن بن تبارك,coffee-shop,30.0541103997349,31.2625717,"{3.0,4.0,3.0,5.0,2.0,3.0,2.0,2.0,2.0,2.0}",,,,,
3775597742,"Tornesch, Baumschulenweg",bus-stop,53.7018226991418,9.7250281,"{3.0,4.0,3.0,5.0,2.0,3.0,2.0,2.0,2.0,2.0}",,,,,
675426540,Pracinha São Luiz,park,-25.3976303339247,-51.492673634229,"{3.0,4.0,3.0,5.0,2.0,3.0,2.0,2.0,2.0,2.0}",,,,,
7838924761,Ashmore Rd at Boree Street,bus-stop,-27.9998259994125,153.381901,"{3.0,4.0,3.0,5.0,2.0,3.0,2.0,2.0,2.0,2.0}",,,,,
10261203822,sairaj paints and ply,mall,18.6147221002859,74.6963671,"{3.0,4.0,3.0,5.0,2.0,3.0,2.0,2.0,2.0,2.0}",,,,,
374490625,Pirate Bay Beach,beach,12.1224509421393,-68.9689833648607,"{3.0,4.0,3.0,5.0,2.0,3.0,2.0,2.0,2.0,2.0}",,,,,
5183476231,Temperley Street South of Whitfield Circuit,bus-stop,-35.1922860999303,149.0985048,"{3.0,4.0,3.0,5.0,2.0,3.0,2.0,2.0,2.0,2.0}",,,,,
276799206,Pharmacie La Sauvegarde,pharmacy,50.6260378686921,5.69684864209218,"{3.0,4.0,3.0,5.0,2.0,3.0,2.0,2.0,2.0,2.0}",,,,,
6373686220,Birkelandsbotn,bus-stop,60.3108560016914,5.380903,"{3.0,4.0,3.0,5.0,2.0,3.0,2.0,2.0,2.0,2.0}",,,,,
4332647635,Collège Marcel Pagnol,bus-stop,49.0307521996847,1.5674176,"{3.0,4.0,3.0,5.0,2.0,3.0,2.0,2.0,2.0,2.0}",,,,,
44032414,Reserva Natural Arrecifes de La Cordillera,nature-reserve,18.3790914896387,-65.5654120757411,"{3.0,4.0,3.0,5.0,2.0,3.0,2.0,2.0,2.0,2.0}",,,,,
706742830,Pracinha da Vila Vieira,park,-21.2787312471774,-47.3072019677065,"{3.0,4.0,3.0,5.0,2.0,3.0,2.0,2.0,2.0,2.0}",,,,,
195192044,Beechwood Primary School,school,53.818894766635,-1.46780419875823,"{3.0,4.0,3.0,5.0,2.0,3.0,2.0,2.0,2.0,2.0}",,,,,
755191451,Garderie Chértienne Les Petits Semeurs,kindergarten,45.5023981659248,-73.419260798622,"{3.0,4.0,3.0,5.0,2.0,3.0,2.0,2.0,2.0,2.0}",,,,,
7471130969,Little Boxes,restaurant,45.9172802003552,6.8676999,"{3.0,4.0,3.0,5.0,2.0,3.0,2.0,2.0,2.0,2.0}",,,,,
619003076,Tomaso's Pizza & Pub,pub,43.3006961005415,-87.9889622,"{3.0,4.0,3.0,5.0,2.0,3.0,2.0,2.0,2.0,2.0}",,,,,
6183805888,DAAF 2,bus-stop,-12.8338660001954,45.1354176,"{3.0,4.0,3.0,5.0,2.0,3.0,2.0,2.0,2.0,2.0}",,,,,
3979135958,Buschenschank Moik,restaurant,46.8805408001855,15.915899,"{3.0,4.0,3.0,5.0,2.0,3.0,2.0,2.0,2.0,2.0}",,,,,
10094840234,Café de la Gare,restaurant,49.0573004996782,2.1900431,"{3.0,4.0,3.0,5.0,2.0,3.0,2.0,2.0,2.0,2.0}",,,,,
6011192051,Michigan / Brush (EB),bus-stop,42.2798291005052,-83.3884728,"{3.0,4.0,3.0,5.0,2.0,3.0,2.0,2.0,2.0,2.0}",,,,,
6573144090,"Schulenrode, Veltheimer Straße",bus-stop,52.2377774991001,10.6818029,"{3.0,4.0,3.0,5.0,2.0,3.0,2.0,2.0,2.0,2.0}",,,,,
1109233349,Primitivo,restaurant,52.4823631990887,-1.899018,"{3.0,4.0,3.0,5.0,2.0,3.0,2.0,2.0,2.0,2.0}",,,,,
82750043,Chez Tito,fast-food,46.1341025529774,0.116471173620085,"{3.0,4.0,3.0,5.0,2.0,3.0,2.0,2.0,2.0,2.0}",,,,,
2805929239,乌西,railway-station,43.8680421005366,87.4179224,"{3.0,4.0,3.0,5.0,2.0,3.0,2.0,2.0,2.0,2.0}",,,,,
4166858369,ナチュラルローソン,convenience-store,35.6650404997039,139.7469302,"{3.0,4.0,3.0,5.0,2.0,3.0,2.0,2.0,2.0,2.0}",,,,,
6324677181,東記上海麵,restaurant,22.4476692004009,114.1688624,"{3.0,4.0,3.0,5.0,2.0,3.0,2.0,2.0,2.0,2.0}",,,,,
8197680450,Loucas Fish Bar,fast-food,51.5138942991707,0.031487,"{3.0,4.0,3.0,5.0,2.0,3.0,2.0,2.0,2.0,2.0}",,,,,
5411062734,Dalgetty Rd/Balcombe Rd,bus-stop,-37.9782550005668,145.0396496,"{3.0,4.0,3.0,5.0,2.0,3.0,2.0,2.0,2.0,2.0}",,,,,
2449493647,Theresienstraße,bus-stop,51.2634906992064,6.3365868,"{3.0,4.0,3.0,5.0,2.0,3.0,2.0,2.0,2.0,2.0}",,,,,
2314247874,たびや,convenience-store,35.8446059997204,140.0067426,"{3.0,4.0,3.0,5.0,2.0,3.0,2.0,2.0,2.0,2.0}",,,,,
4582629452,Zuiderhof,bus-stop,52.5158330990876,4.9382203,"{3.0,4.0,3.0,5.0,2.0,3.0,2.0,2.0,2.0,2.0}",,,,,
7877285251,Karma,restaurant,36.7149465998136,25.2945469,"{3.0,4.0,3.0,5.0,2.0,3.0,2.0,2.0,2.0,2.0}",,,,,
2280666519,Stop 55 Grenfell Road - South side,bus-stop,-34.805809999848,138.71528,"{3.0,4.0,3.0,5.0,2.0,3.0,2.0,2.0,2.0,2.0}",,,,,
3383996519,Rosendahl,bus-stop,51.7666783991402,7.9426878,"{3.0,4.0,3.0,5.0,2.0,3.0,2.0,2.0,2.0,2.0}",,,,,
2191424700,1 Maja 01,bus-stop,51.0566743992397,21.0551877,"{3.0,4.0,3.0,5.0,2.0,3.0,2.0,2.0,2.0,2.0}",,,,,
936715430,Löbnitz Ausbau,bus-stop,54.2982896492407,12.6940607,"{3.0,4.0,3.0,5.0,2.0,3.0,2.0,2.0,2.0,2.0}",,,,,
8338768882,セブン-イレブン,convenience-store,35.6167598996996,139.5493941,"{3.0,4.0,3.0,5.0,2.0,3.0,2.0,2.0,2.0,2.0}",,,,,
180733386,Park Dworski,park,51.5122710339058,19.8311868371968,"{3.0,4.0,3.0,5.0,2.0,3.0,2.0,2.0,2.0,2.0}",,,,,
545154883,Pepito Market - Andong,supermarket,-8.50416142501191,115.271526116945,"{3.0,4.0,3.0,5.0,2.0,3.0,2.0,2.0,2.0,2.0}",,,,,
11244981222,延吉西站,bus-stop,42.9010326005339,129.4044945,"{3.0,4.0,3.0,5.0,2.0,3.0,2.0,2.0,2.0,2.0}",,,,,
5131259358,"Ihrlerstein, Nürnberger Straße/Abzw. Jägersteig",bus-stop,48.9495010997049,11.8528238,"{3.0,4.0,3.0,5.0,2.0,3.0,2.0,2.0,2.0,2.0}",,,,,
1558273364,станция метро «Парк Победы»,bus-stop,59.8665195015855,30.321006,"{3.0,4.0,3.0,5.0,2.0,3.0,2.0,2.0,2.0,2.0}",,,,,
25914676,"The Green, Parklands",park,50.8412153560348,-0.791062606935902,"{3.0,4.0,3.0,5.0,2.0,3.0,2.0,2.0,2.0,2.0}",,,,,
5444471309,ကေအက်ဖ်စီ KFC,restaurant,16.9127026001261,96.1663946,"{3.0,4.0,3.0,5.0,2.0,3.0,2.0,2.0,2.0,2.0}",,,,,
398347985,Praça Treze de Maio,park,-19.5975309742665,-46.9433142171298,"{3.0,4.0,3.0,5.0,2.0,3.0,2.0,2.0,2.0,2.0}",,,,,
3081488096,Mosby ringvei,bus-stop,58.2147020008864,7.923497,"{3.0,4.0,3.0,5.0,2.0,3.0,2.0,2.0,2.0,2.0}",,,,,
2626745053,旭町,bus-stop,35.5277032996919,139.428056,"{3.0,4.0,3.0,5.0,2.0,3.0,2.0,2.0,2.0,2.0}",,,,,
543987553,Parque Publico Camino de la Instancia,park,4.75171481598378,-74.0545135432733,"{3.0,4.0,3.0,5.0,2.0,3.0,2.0,2.0,2.0,2.0}",,,,,
6247218839,Bulk,convenience-store,50.8301587992798,4.3729861,"{3.0,4.0,3.0,5.0,2.0,3.0,2.0,2.0,2.0,2.0}",,,,,
539362250,Großwilfersdorf Ort/Bundesstraße,bus-stop,47.0774241001453,15.9948332,"{3.0,4.0,3.0,5.0,2.0,3.0,2.0,2.0,2.0,2.0}",,,,,
3086651542,Strépy-Bracquegnies Chapelle Bertrand,bus-stop,50.476303899349,4.1137629,"{3.0,4.0,3.0,5.0,2.0,3.0,2.0,2.0,2.0,2.0}",,,,,
9828521143,Amarnath Medical,pharmacy,26.2570376001378,88.186184,"{3.0,4.0,3.0,5.0,2.0,3.0,2.0,2.0,2.0,2.0}",,,,,
82387926,Forum Medica,doctor,43.5716664500923,3.90712536877166,"{3.0,4.0,3.0,5.0,2.0,3.0,2.0,2.0,2.0,2.0}",,,,,
9347663329,Ueb Ens Fund Estudante Edson Luiz De Lima Souto,school,-2.55288209977823,-44.319423,"{3.0,4.0,3.0,5.0,2.0,3.0,2.0,2.0,2.0,2.0}",,,,,
2174121736,Танк,bus-stop,48.0485574999261,38.0231817,"{3.0,4.0,3.0,5.0,2.0,3.0,2.0,2.0,2.0,2.0}",,,,,
584824678,セナラ,restaurant,35.8448827592342,139.688019095317,"{3.0,4.0,3.0,5.0,2.0,3.0,2.0,2.0,2.0,2.0}",,,,,
8722282662,张森楷路,bus-stop,29.9956133997401,106.3787334,"{3.0,4.0,3.0,5.0,2.0,3.0,2.0,2.0,2.0,2.0}",,,,,
6440336206,Coffee Cards Carpentry,coffee-shop,11.3069962995216,106.1323605,"{3.0,4.0,3.0,5.0,2.0,3.0,2.0,2.0,2.0,2.0}",,,,,
731950945,Lewiatan,supermarket,49.7495034995102,21.9349076,"{3.0,4.0,3.0,5.0,2.0,3.0,2.0,2.0,2.0,2.0}",,,,,
2985308177,Tilly Haut du Tienne,bus-stop,50.5656751993308,4.5522576,"{3.0,4.0,3.0,5.0,2.0,3.0,2.0,2.0,2.0,2.0}",,,,,
10081038205,N-2034,bus-stop,-38.950731300762,-68.0706703,"{3.0,4.0,3.0,5.0,2.0,3.0,2.0,2.0,2.0,2.0}",,,,,
8988402973,Conad City,convenience-store,37.5164164999153,15.0904043,"{3.0,4.0,3.0,5.0,2.0,3.0,2.0,2.0,2.0,2.0}",,,,,
9788462271,Gandhi Market Matunga,bus-stop,19.0397413003172,72.8621328,"{3.0,4.0,3.0,5.0,2.0,3.0,2.0,2.0,2.0,2.0}",,,,,
4431508492,Lamri,coffee-shop,33.800278499596,2.8690929,"{3.0,4.0,3.0,5.0,2.0,3.0,2.0,2.0,2.0,2.0}",,,,,
1219991115,Sekolah Rendah Katok 'B',school,4.90151468215391,114.87883878041,"{3.0,4.0,3.0,5.0,2.0,3.0,2.0,2.0,2.0,2.0}",,,,,
10225470942,Gdyńskie korzenie,restaurant,54.4895578992829,18.4442976,"{3.0,4.0,3.0,5.0,2.0,3.0,2.0,2.0,2.0,2.0}",,,,,
11001870685,Sal y Pepa,restaurant,53.2686169991007,-6.1670691,"{3.0,4.0,3.0,5.0,2.0,3.0,2.0,2.0,2.0,2.0}",,,,,
612845460,"Government Vocational Higher Secondary School, Kadakkal",school,8.82731344613817,76.9294430159517,"{3.0,4.0,3.0,5.0,2.0,3.0,2.0,2.0,2.0,2.0}",,,,,
481482341,桜山森林公園,park,36.1621545306409,139.021039329592,"{3.0,4.0,3.0,5.0,2.0,3.0,2.0,2.0,2.0,2.0}",,,,,
202774333,Средняя школа №19,school,50.2977540821869,57.1662231081389,"{3.0,4.0,3.0,5.0,2.0,3.0,2.0,2.0,2.0,2.0}",,,,,
364682625,Nancy Nursery School,kindergarten,-6.83232024970504,39.24721555,"{3.0,4.0,3.0,5.0,2.0,3.0,2.0,2.0,2.0,2.0}",,,,,
1041147126,Unidad Educativa Dr. Alberto Gomez,school,-1.38960435663772,-78.5462446336715,"{3.0,4.0,3.0,5.0,2.0,3.0,2.0,2.0,2.0,2.0}",,,,,
4931062101,Зеленая поляна,coffee-shop,51.1452307992251,71.4506283,"{3.0,4.0,3.0,5.0,2.0,3.0,2.0,2.0,2.0,2.0}",,,,,
4297017428,Petit Seminaire Saint Joseph,school,-2.97608449975203,29.8722701,"{3.0,4.0,3.0,5.0,2.0,3.0,2.0,2.0,2.0,2.0}",,,,,
4543264787,Point de vente,convenience-store,7.77660279939152,-8.681532,"{3.0,4.0,3.0,5.0,2.0,3.0,2.0,2.0,2.0,2.0}",,,,,
582686763,Pizzeria Acasa,restaurant,53.858467899163,10.6715363,"{3.0,4.0,3.0,5.0,2.0,3.0,2.0,2.0,2.0,2.0}",,,,,
10819729744,Rumah Kita Coffee & Eatery,coffee-shop,-0.0459766999952955,109.3276678,"{3.0,4.0,3.0,5.0,2.0,3.0,2.0,2.0,2.0,2.0}",,,,,
451967943,Läätsa,bus-stop,58.1451766008509,22.2482925,"{3.0,4.0,3.0,5.0,2.0,3.0,2.0,2.0,2.0,2.0}",,,,,
2713355708,Martin Way and Support Enforcement [eb],bus-stop,47.0500052001509,-122.8006567,"{3.0,4.0,3.0,5.0,2.0,3.0,2.0,2.0,2.0,2.0}",,,,,
3707740319,Höfen Gemeindehalle,bus-stop,48.8765535997229,9.4269505,"{3.0,4.0,3.0,5.0,2.0,3.0,2.0,2.0,2.0,2.0}",,,,,
527013696,Padiyathalawa National School,school,7.40707039939615,81.24289135,"{3.0,4.0,3.0,5.0,2.0,3.0,2.0,2.0,2.0,2.0}",,,,,
479387997,Fairborn Community Park,park,39.7918476241886,-84.008824930035,"{3.0,4.0,3.0,5.0,2.0,3.0,2.0,2.0,2.0,2.0}",,,,,
5515515821,cafeto,coffee-shop,21.5124110004099,-104.8934432,"{3.0,4.0,3.0,5.0,2.0,3.0,2.0,2.0,2.0,2.0}",,,,,
829754793,кафе,coffee-shop,50.2180379994038,136.9008762,"{3.0,4.0,3.0,5.0,2.0,3.0,2.0,2.0,2.0,2.0}",,,,,
5871808586,Aqaba pharmacy,pharmacy,29.5261588997841,35.0034304,"{3.0,4.0,3.0,5.0,2.0,3.0,2.0,2.0,2.0,2.0}",,,,,
10721209,恕德幼兒園,kindergarten,25.0833665927898,121.569330895377,"{3.0,4.0,3.0,5.0,2.0,3.0,2.0,2.0,2.0,2.0}",,,,,
528992168,The Plough,pub,53.7551593991486,-2.8660482,"{3.0,4.0,3.0,5.0,2.0,3.0,2.0,2.0,2.0,2.0}",,,,,
5266882929,A Quickborn,bus-stop,53.7320782991456,9.9044064,"{3.0,4.0,3.0,5.0,2.0,3.0,2.0,2.0,2.0,2.0}",,,,,
3654025630,Le 6 Paul Bert,restaurant,48.8512912997292,2.3846401,"{3.0,4.0,3.0,5.0,2.0,3.0,2.0,2.0,2.0,2.0}",,,,,
247325557,Ooreenkoms,railway-station,-28.0950872994045,27.9596914,"{3.0,4.0,3.0,5.0,2.0,3.0,2.0,2.0,2.0,2.0}",,,,,
6246853088,Centro Ginecologico Pro-Mujer,clinic,-17.7564011004751,-63.1655209,"{3.0,4.0,3.0,5.0,2.0,3.0,2.0,2.0,2.0,2.0}",,,,,
356527107,Melrose Elementary School,school,37.3888990998983,-81.0539035,"{3.0,4.0,3.0,5.0,2.0,3.0,2.0,2.0,2.0,2.0}",,,,,
9964861099,اجياد 2,bus-stop,21.4207116004095,39.8308166,"{3.0,4.0,3.0,5.0,2.0,3.0,2.0,2.0,2.0,2.0}",,,,,
1549146464,Costa Blanca - Adolfo Suárez IV,bus-stop,38.3623829000336,-0.4337973,"{3.0,4.0,3.0,5.0,2.0,3.0,2.0,2.0,2.0,2.0}",,,,,
2611675808,Trapstraat,bus-stop,51.2281769992119,4.4235333,"{3.0,4.0,3.0,5.0,2.0,3.0,2.0,2.0,2.0,2.0}",,,,,
6738876503,Today,convenience-store,26.071072200157,-80.1456049,"{3.0,4.0,3.0,5.0,2.0,3.0,2.0,2.0,2.0,2.0}",,,,,
4518991356,Nádražní restaurace,restaurant,49.7435608995116,18.622919,"{3.0,4.0,3.0,5.0,2.0,3.0,2.0,2.0,2.0,2.0}",,,,,
5793474064,Ballinacourty restaurant,restaurant,52.4163693990911,-8.2099384,"{3.0,4.0,3.0,5.0,2.0,3.0,2.0,2.0,2.0,2.0}",,,,,
3097218587,安中路口,bus-stop,23.0376371003826,120.2027341,"{3.0,4.0,3.0,5.0,2.0,3.0,2.0,2.0,2.0,2.0}",,,,,
1976521076,Ohle Kolonie,bus-stop,51.233951099211,7.8437443,"{3.0,4.0,3.0,5.0,2.0,3.0,2.0,2.0,2.0,2.0}",,,,,
5817716112,1 Brygady,bus-stop,49.6089350995436,20.7241486,"{3.0,4.0,3.0,5.0,2.0,3.0,2.0,2.0,2.0,2.0}",,,,,
9979566392,Feel Good Café,coffee-shop,51.3765192991896,-0.0143702,"{3.0,4.0,3.0,5.0,2.0,3.0,2.0,2.0,2.0,2.0}",,,,,
120948089,Поликлиника ПИЯФ,doctor,59.5939318713603,30.1132564662406,"{3.0,4.0,3.0,5.0,2.0,3.0,2.0,2.0,2.0,2.0}",,,,,
2284142644,筑池,bus-stop,35.4841543996883,139.5249554,"{3.0,4.0,3.0,5.0,2.0,3.0,2.0,2.0,2.0,2.0}",,,,,
9568094679,Chungampaara,bus-stop,9.88978779943275,76.4655679,"{3.0,4.0,3.0,5.0,2.0,3.0,2.0,2.0,2.0,2.0}",,,,,
246269717,The Coachman Restaurant & Lounge,restaurant,39.6725556534709,-86.3698416285549,"{3.0,4.0,3.0,5.0,2.0,3.0,2.0,2.0,2.0,2.0}",,,,,
7073441213,Liscay,doctor,-13.0855842002197,-75.7451824,"{3.0,4.0,3.0,5.0,2.0,3.0,2.0,2.0,2.0,2.0}",,,,,
5003438792,Krishna Vilas,restaurant,52.0982051991096,5.1124071,"{3.0,4.0,3.0,5.0,2.0,3.0,2.0,2.0,2.0,2.0}",,,,,
5845059486,Zanatlija,restaurant,45.3826383004272,20.3933526,"{3.0,4.0,3.0,5.0,2.0,3.0,2.0,2.0,2.0,2.0}",,,,,
9365001119,莲花村地铁站,bus-stop,22.5527139003983,114.062975,"{3.0,4.0,3.0,5.0,2.0,3.0,2.0,2.0,2.0,2.0}",,,,,
1267955204,Anel Viário Prefeito Sincler Sambatti,bus-stop,-23.4543940000037,-51.9080529,"{3.0,4.0,3.0,5.0,2.0,3.0,2.0,2.0,2.0,2.0}",,,,,
11401623759,Escuela 4-168 Prof. María Eugenia Trossero,school,-33.1034955995429,-68.4869081,"{3.0,4.0,3.0,5.0,2.0,3.0,2.0,2.0,2.0,2.0}",,,,,
5002941858,Школа интернат,school,50.5838632993272,70.036093,"{3.0,4.0,3.0,5.0,2.0,3.0,2.0,2.0,2.0,2.0}",,,,,
533853750,EASTHAM VILLAGE ROAD/CHURCH LANE,bus-stop,53.3118805991037,-2.9610811,"{3.0,4.0,3.0,5.0,2.0,3.0,2.0,2.0,2.0,2.0}",,,,,
6622391473,Hameau Saint-Corps,bus-stop,45.4158369004232,5.2619002,"{3.0,4.0,3.0,5.0,2.0,3.0,2.0,2.0,2.0,2.0}",,,,,
180603262,The Children's Studio,kindergarten,-33.9887491996883,18.4743725,"{3.0,4.0,3.0,5.0,2.0,3.0,2.0,2.0,2.0,2.0}",,,,,
380777575,MI Negeri 24 Hulu Sungai Utara,school,-2.44518614887545,115.238291198935,"{3.0,4.0,3.0,5.0,2.0,3.0,2.0,2.0,2.0,2.0}",,,,,
7099993594,Hovskorsen,bus-stop,64.6581159993307,11.216561,"{3.0,4.0,3.0,5.0,2.0,3.0,2.0,2.0,2.0,2.0}",,,,,
8441111205,알트스위스샬레,restaurant,37.5356892999179,126.9942342,"{3.0,4.0,3.0,5.0,2.0,3.0,2.0,2.0,2.0,2.0}",,,,,
8729168442,"Rua Vicente Melro, 1073",bus-stop,-23.4594707000029,-46.5666732,"{3.0,4.0,3.0,5.0,2.0,3.0,2.0,2.0,2.0,2.0}",,,,,
1875382493,Clinica 9 de julio,hospital,-32.5872804994737,-61.1682414,"{3.0,4.0,3.0,5.0,2.0,3.0,2.0,2.0,2.0,2.0}",,,,,
8610104061,"Kraiburg a.Inn, Unterbräu",bus-stop,48.1843984998934,12.4274951,"{3.0,4.0,3.0,5.0,2.0,3.0,2.0,2.0,2.0,2.0}",,,,,
502407864,Farthingate,bus-stop,53.0761030990905,-0.9466855,"{3.0,4.0,3.0,5.0,2.0,3.0,2.0,2.0,2.0,2.0}",,,,,
8927870968,9000 S @ 1519 W,bus-stop,40.5875975003436,-111.934875,"{3.0,4.0,3.0,5.0,2.0,3.0,2.0,2.0,2.0,2.0}",,,,,
4168446495,Almacen  Braulio,supermarket,19.4757295003451,-70.5851162,"{3.0,4.0,3.0,5.0,2.0,3.0,2.0,2.0,2.0,2.0}",,,,,
9092912802,한우놋곰탕,restaurant,37.6699515999362,126.750051,"{3.0,4.0,3.0,5.0,2.0,3.0,2.0,2.0,2.0,2.0}",,,,,
640033376,Хлебная лавка,convenience-store,57.5755713339406,34.5437355672592,"{3.0,4.0,3.0,5.0,2.0,3.0,2.0,2.0,2.0,2.0}",,,,,
3890295898,イタリアンレストラン,restaurant,34.5398389996243,135.4427316,"{3.0,4.0,3.0,5.0,2.0,3.0,2.0,2.0,2.0,2.0}",,,,,
207971751,Кафетерий,coffee-shop,54.7795641404222,34.3376392767245,"{3.0,4.0,3.0,5.0,2.0,3.0,2.0,2.0,2.0,2.0}",,,,,
1154877784,Main Street Market,supermarket,43.3873440727338,-93.9467842170542,"{3.0,4.0,3.0,5.0,2.0,3.0,2.0,2.0,2.0,2.0}",,,,,
495271804,Mercado do Condomínio,supermarket,-23.5715754590972,-45.291538768881,"{3.0,4.0,3.0,5.0,2.0,3.0,2.0,2.0,2.0,2.0}",,,,,
6792476280,IKEA Restaurant,fast-food,51.5698736991634,7.6689253,"{3.0,4.0,3.0,5.0,2.0,3.0,2.0,2.0,2.0,2.0}",,,,,
7551913239,Supremo,supermarket,40.2321286002983,-74.7841595,"{3.0,4.0,3.0,5.0,2.0,3.0,2.0,2.0,2.0,2.0}",,,,,
2683452864,Lobo,restaurant,41.8155443004718,-8.3276729,"{3.0,4.0,3.0,5.0,2.0,3.0,2.0,2.0,2.0,2.0}",,,,,
9747765590,Warung Nasi Goreng Munawarah,restaurant,-2.42328399978696,115.2584904,"{3.0,4.0,3.0,5.0,2.0,3.0,2.0,2.0,2.0,2.0}",,,,,
6944239600,Mangal's Nursing Home -Bangalore,clinic,13.0220525996816,77.5576729,"{3.0,4.0,3.0,5.0,2.0,3.0,2.0,2.0,2.0,2.0}",,,,,
938908058,国色天香,park,40.2869746071532,116.560527491987,"{3.0,4.0,3.0,5.0,2.0,3.0,2.0,2.0,2.0,2.0}",,,,,
5664910688,Route de Voisenon,bus-stop,48.5476379998044,2.6631486,"{3.0,4.0,3.0,5.0,2.0,3.0,2.0,2.0,2.0,2.0}",,,,,
1193235345,The Gardens Early Childhood Education,kindergarten,-37.0058632720052,174.91525427624,"{3.0,4.0,3.0,5.0,2.0,3.0,2.0,2.0,2.0,2.0}",,,,,
122916407,Auerwirt,restaurant,47.65195513293,13.0587856193728,"{3.0,4.0,3.0,5.0,2.0,3.0,2.0,2.0,2.0,2.0}",,,,,
1598789524,Магнит,convenience-store,55.7555945996872,52.4160349,"{3.0,4.0,3.0,5.0,2.0,3.0,2.0,2.0,2.0,2.0}",,,,,
8853189369,Gare de Dreux,bus-stop,48.7321917997587,1.3717396,"{3.0,4.0,3.0,5.0,2.0,3.0,2.0,2.0,2.0,2.0}",,,,,
23905177,Kath. GS Meerkamp,school,51.1657374505658,6.48665911031428,"{3.0,4.0,3.0,5.0,2.0,3.0,2.0,2.0,2.0,2.0}",,,,,
3288610569,AS-Minimarkt,convenience-store,50.1253986994241,8.6432986,"{3.0,4.0,3.0,5.0,2.0,3.0,2.0,2.0,2.0,2.0}",,,,,
1040727308,Santa Teresa Elementary School,school,12.2513492835028,121.116976921635,"{3.0,4.0,3.0,5.0,2.0,3.0,2.0,2.0,2.0,2.0}",,,,,
6332641,Emerson Park,park,-27.4185629188035,153.017959035812,"{3.0,4.0,3.0,5.0,2.0,3.0,2.0,2.0,2.0,2.0}",,,,,
9790729862,Nanma Medicals,pharmacy,12.4996730996279,74.9877473,"{3.0,4.0,3.0,5.0,2.0,3.0,2.0,2.0,2.0,2.0}",,,,,
288378952,やきとり,fast-food,35.5582269996946,140.1771062,"{3.0,4.0,3.0,5.0,2.0,3.0,2.0,2.0,2.0,2.0}",,,,,
841475921,Gordon College,university,42.5884559698634,-70.8236693700678,"{3.0,4.0,3.0,5.0,2.0,3.0,2.0,2.0,2.0,2.0}",,,,,
10220918148,Dr. Max,pharmacy,45.3517628004309,23.2043879,"{3.0,4.0,3.0,5.0,2.0,3.0,2.0,2.0,2.0,2.0}",,,,,
4966097934,Wyganów wieś,bus-stop,51.7296200991443,17.277844,"{3.0,4.0,3.0,5.0,2.0,3.0,2.0,2.0,2.0,2.0}",,,,,
2398078464,はる,coffee-shop,35.2071154996664,137.038044,"{3.0,4.0,3.0,5.0,2.0,3.0,2.0,2.0,2.0,2.0}",,,,,
8149401198,"Rua João Antônio Andrade, 1066",bus-stop,-23.4995989999972,-46.4774,"{3.0,4.0,3.0,5.0,2.0,3.0,2.0,2.0,2.0,2.0}",,,,,
1056698093,Restaurante Estación Sur,restaurant,-23.5719759999869,-46.6567874,"{3.0,4.0,3.0,5.0,2.0,3.0,2.0,2.0,2.0,2.0}",,,,,
4811570949,فلافلی,fast-food,35.6712941997045,51.4373152,"{3.0,4.0,3.0,5.0,2.0,3.0,2.0,2.0,2.0,2.0}",,,,,
7722225874,Rua Luiz Barreto,bus-stop,-21.1547110002909,-47.801625,"{3.0,4.0,3.0,5.0,2.0,3.0,2.0,2.0,2.0,2.0}",,,,,
4382497281,Valley Avenue & Via de Los Cerros,bus-stop,37.6710017999363,-121.899513,"{3.0,4.0,3.0,5.0,2.0,3.0,2.0,2.0,2.0,2.0}",,,,,
517849171,Булевар ослобођења - Максима Горког,bus-stop,45.2484211004426,19.8391566,"{3.0,4.0,3.0,5.0,2.0,3.0,2.0,2.0,2.0,2.0}",,,,,
28070606,Pferdesport-Arena Schildau,sports-centre,51.4484433369858,12.9506116850863,"{3.0,4.0,3.0,5.0,2.0,3.0,2.0,2.0,2.0,2.0}",,,,,
1212917308,Trung Tâm Giáo Dục Thường Xuyên Nguyễn Văn Tố,college,21.032264349784,105.84907841331,"{3.0,4.0,3.0,5.0,2.0,3.0,2.0,2.0,2.0,2.0}",,,,,
672452153,杨镇一中教育集团,school,40.1533282055209,116.811046628246,"{3.0,4.0,3.0,5.0,2.0,3.0,2.0,2.0,2.0,2.0}",,,,,
622216662,Shelard Manor,bus-stop,44.9784468004703,-93.4075081,"{3.0,4.0,3.0,5.0,2.0,3.0,2.0,2.0,2.0,2.0}",,,,,
8491644470,Chipotle,fast-food,42.9855669005362,-78.6975166,"{3.0,4.0,3.0,5.0,2.0,3.0,2.0,2.0,2.0,2.0}",,,,,
6689802384,Villefelix,bus-stop,45.8633646003632,1.236493,"{3.0,4.0,3.0,5.0,2.0,3.0,2.0,2.0,2.0,2.0}",,,,,
5629969959,ΑΓΙΟΣ ΤΡΥΦΩΝΑΣ,bus-stop,40.5546090003395,23.0187197,"{3.0,4.0,3.0,5.0,2.0,3.0,2.0,2.0,2.0,2.0}",,,,,
1994968266,"Teplice nad Bečvou, Zbrašov",bus-stop,49.528145599563,17.7393711,"{3.0,4.0,3.0,5.0,2.0,3.0,2.0,2.0,2.0,2.0}",,,,,
5574135734,Institución Educativa No. 40610,school,-14.9956715003795,-72.1644134,"{3.0,4.0,3.0,5.0,2.0,3.0,2.0,2.0,2.0,2.0}",,,,,
318221246,Nuovo K2,restaurant,37.6431768697319,14.9570968839779,"{3.0,4.0,3.0,5.0,2.0,3.0,2.0,2.0,2.0,2.0}",,,,,
642265247,Bf. Bad Oldesloe (ZOB),bus-stop,53.8049917991553,10.3813086,"{3.0,4.0,3.0,5.0,2.0,3.0,2.0,2.0,2.0,2.0}",,,,,
502474588,Burton Road/Hope Street,bus-stop,53.5724860991269,-1.4334262,"{3.0,4.0,3.0,5.0,2.0,3.0,2.0,2.0,2.0,2.0}",,,,,
4144236690,Beer Pub,pub,44.3407288005177,17.2720709,"{3.0,4.0,3.0,5.0,2.0,3.0,2.0,2.0,2.0,2.0}",,,,,
119973193,Escola primária,school,41.1505771398964,-7.68091408798758,"{3.0,4.0,3.0,5.0,2.0,3.0,2.0,2.0,2.0,2.0}",,,,,
6060111685,قوتابخانەی بن چیای بنەڕەتی تێکەڵاو,school,36.5690134997966,44.3404419,"{3.0,4.0,3.0,5.0,2.0,3.0,2.0,2.0,2.0,2.0}",,,,,
5843556190,Gengeni,bus-stop,-6.80432379970408,37.7479325,"{3.0,4.0,3.0,5.0,2.0,3.0,2.0,2.0,2.0,2.0}",,,,,
10572257891,Ånerudstua,bus-stop,59.9653470016131,11.373489,"{3.0,4.0,3.0,5.0,2.0,3.0,2.0,2.0,2.0,2.0}",,,,,
1102330055,Ratskeller Bückeburg,restaurant,52.2609729990987,9.0457736,"{3.0,4.0,3.0,5.0,2.0,3.0,2.0,2.0,2.0,2.0}",,,,,
2820920337,モスバーガー,fast-food,34.7146467996338,135.5609695,"{3.0,4.0,3.0,5.0,2.0,3.0,2.0,2.0,2.0,2.0}",,,,,
1191099071,Fengersvej,bus-stop,55.6609357996499,12.5052953,"{3.0,4.0,3.0,5.0,2.0,3.0,2.0,2.0,2.0,2.0}",,,,,
3392046,Gausterer 69,restaurant,48.0482921650658,16.31763716966,"{3.0,4.0,3.0,5.0,2.0,3.0,2.0,2.0,2.0,2.0}",,,,,
781509219,"Grundschule ""John Brinckman""",school,54.0826886714887,12.1749550676906,"{3.0,4.0,3.0,5.0,2.0,3.0,2.0,2.0,2.0,2.0}",,,,,
3930453367,Varsovie,bus-stop,48.8612245997268,2.2915595,"{3.0,4.0,3.0,5.0,2.0,3.0,2.0,2.0,2.0,2.0}",,,,,
684165178,Primaria 18 de Marzo,school,20.4729063862982,-99.3668649572513,"{3.0,4.0,3.0,5.0,2.0,3.0,2.0,2.0,2.0,2.0}",,,,,
4888379124,Shekina2,convenience-store,-34.8864013998649,-56.159144,"{3.0,4.0,3.0,5.0,2.0,3.0,2.0,2.0,2.0,2.0}",,,,,
358993089,Fountain Hill Elementary School,school,33.3534459995885,-91.8501306,"{3.0,4.0,3.0,5.0,2.0,3.0,2.0,2.0,2.0,2.0}",,,,,
3339501748,Reading Zabka,supermarket,51.4578278991782,-1.0011183,"{3.0,4.0,3.0,5.0,2.0,3.0,2.0,2.0,2.0,2.0}",,,,,
964149096,McDonald's,fast-food,-32.0154841332667,115.842720689526,"{3.0,4.0,3.0,5.0,2.0,3.0,2.0,2.0,2.0,2.0}",,,,,
8633684292,Kingsway Drive & Kingswood Boulevard,bus-stop,53.6519896991358,-113.5839021,"{3.0,4.0,3.0,5.0,2.0,3.0,2.0,2.0,2.0,2.0}",,,,,
16220266,Yankee Hill Behavioral School,school,40.7720208643391,-96.7331402758022,"{3.0,4.0,3.0,5.0,2.0,3.0,2.0,2.0,2.0,2.0}",,,,,
576607599,Hawthorns Fish and Chips,fast-food,51.8865230062641,0.938469763975666,"{3.0,4.0,3.0,5.0,2.0,3.0,2.0,2.0,2.0,2.0}",,,,,
10708153425,Garvey Avenue & Kelburn Avenue,bus-stop,34.0627552996038,-118.0948009,"{3.0,4.0,3.0,5.0,2.0,3.0,2.0,2.0,2.0,2.0}",,,,,
597067920,Veterans Memorial Park,park,28.2490397256056,-81.2833292855047,"{3.0,4.0,3.0,5.0,2.0,3.0,2.0,2.0,2.0,2.0}",,,,,
9324890936,Pharmacie Therrien & Brassard,pharmacy,46.3618411002828,-72.5927758,"{3.0,4.0,3.0,5.0,2.0,3.0,2.0,2.0,2.0,2.0}",,,,,
469762221,All Saints College,bus-stop,51.6071252991587,-0.0752532,"{3.0,4.0,3.0,5.0,2.0,3.0,2.0,2.0,2.0,2.0}",,,,,
511213029,PizzaExpress,restaurant,55.9488009997664,-3.1925834,"{3.0,4.0,3.0,5.0,2.0,3.0,2.0,2.0,2.0,2.0}",,,,,
699092390,Academia Opção,gym,-5.86351234968273,-35.2061335,"{3.0,4.0,3.0,5.0,2.0,3.0,2.0,2.0,2.0,2.0}",,,,,
5904472242,Monplaisir-Plessis,bus-stop,47.4990719000539,-0.429486,"{3.0,4.0,3.0,5.0,2.0,3.0,2.0,2.0,2.0,2.0}",,,,,
11401015280,Dr. Cornelia Trojer,doctor,47.0172654001577,12.3755286,"{3.0,4.0,3.0,5.0,2.0,3.0,2.0,2.0,2.0,2.0}",,,,,
4290979801,Mosa di hati stop,bus-stop,34.2274934996099,73.2410993,"{3.0,4.0,3.0,5.0,2.0,3.0,2.0,2.0,2.0,2.0}",,,,,
441946402,Ipercoop,supermarket,44.5142931005073,11.3297731,"{3.0,4.0,3.0,5.0,2.0,3.0,2.0,2.0,2.0,2.0}",,,,,
6354079258,Planet Fitness,gym,41.5557127004491,-72.6823226,"{3.0,4.0,3.0,5.0,2.0,3.0,2.0,2.0,2.0,2.0}",,,,,
6171967004,Crovara y Arieta,bus-stop,-34.6970918998256,-58.5363512,"{3.0,4.0,3.0,5.0,2.0,3.0,2.0,2.0,2.0,2.0}",,,,,
635115294,Complejo Deportivo Magisterial,sports-centre,-14.9091184058869,-70.2040678685171,"{3.0,4.0,3.0,5.0,2.0,3.0,2.0,2.0,2.0,2.0}",,,,,
551554640,ほっかほっか亭,fast-food,32.9324377341365,132.718324566497,"{3.0,4.0,3.0,5.0,2.0,3.0,2.0,2.0,2.0,2.0}",,,,,
132733921,Volksschule Ladis,school,47.0737795007339,10.649842266819,"{3.0,4.0,3.0,5.0,2.0,3.0,2.0,2.0,2.0,2.0}",,,,,
8420604127,高雄大學 (德中路),bus-stop,22.7274943003934,120.2738598,"{3.0,4.0,3.0,5.0,2.0,3.0,2.0,2.0,2.0,2.0}",,,,,
3154231935,Fulton Street & Fort Greene Place,bus-stop,40.6874336003558,-73.9770522,"{3.0,4.0,3.0,5.0,2.0,3.0,2.0,2.0,2.0,2.0}",,,,,
10913839248,かごしま遊楽館 遊食豚彩いちにいさん,restaurant,35.6737234997047,139.7606655,"{3.0,4.0,3.0,5.0,2.0,3.0,2.0,2.0,2.0,2.0}",,,,,
489085230,Sağlık Meslek Lisesi,school,39.5032479695123,26.9710782370856,"{3.0,4.0,3.0,5.0,2.0,3.0,2.0,2.0,2.0,2.0}",,,,,
4445057890,جمال البحر الابيض المتوسط,clinic,32.4272571995955,14.9243704,"{3.0,4.0,3.0,5.0,2.0,3.0,2.0,2.0,2.0,2.0}",,,,,
226185027,Walmart Supercenter,supermarket,41.7603657830407,-111.83041019904,"{3.0,4.0,3.0,5.0,2.0,3.0,2.0,2.0,2.0,2.0}",,,,,
304830659,St. Michael,kindergarten,47.8193745999804,9.0585801,"{3.0,4.0,3.0,5.0,2.0,3.0,2.0,2.0,2.0,2.0}",,,,,
9791830369,湖景科技园(十八湾农庄),bus-stop,31.5525303996285,120.1906335,"{3.0,4.0,3.0,5.0,2.0,3.0,2.0,2.0,2.0,2.0}",,,,,
2039201677,Taco Bell,fast-food,38.5908953000666,-121.5508745,"{3.0,4.0,3.0,5.0,2.0,3.0,2.0,2.0,2.0,2.0}",,,,,
179045341,BP,convenience-store,50.2947437627759,18.9558159011693,"{3.0,4.0,3.0,5.0,2.0,3.0,2.0,2.0,2.0,2.0}",,,,,
681684355,Praça Helena Marcos Aristides,park,-23.6375146863651,-46.6064349960177,"{3.0,4.0,3.0,5.0,2.0,3.0,2.0,2.0,2.0,2.0}",,,,,
11345084762,Lubichowo,bus-stop,53.8511200991619,18.4009868,"{3.0,4.0,3.0,5.0,2.0,3.0,2.0,2.0,2.0,2.0}",,,,,
6507284312,TW Alexander Dr at Creekside Townhomes,bus-stop,35.9224037997279,-78.8373747,"{3.0,4.0,3.0,5.0,2.0,3.0,2.0,2.0,2.0,2.0}",,,,,
205399096,Waldorfkindergarten,kindergarten,53.7403945395222,9.67951266907808,"{3.0,4.0,3.0,5.0,2.0,3.0,2.0,2.0,2.0,2.0}",,,,,
10230804072,L'Accoudoir,coffee-shop,48.1247217999078,-3.0703396,"{3.0,4.0,3.0,5.0,2.0,3.0,2.0,2.0,2.0,2.0}",,,,,
6423643617,Hwy 93 & W 58th Ave,bus-stop,39.8018587002401,-105.2245119,"{3.0,4.0,3.0,5.0,2.0,3.0,2.0,2.0,2.0,2.0}",,,,,
7099991156,Kråka,bus-stop,63.1884900008447,8.816899,"{3.0,4.0,3.0,5.0,2.0,3.0,2.0,2.0,2.0,2.0}",,,,,
4453640800,文化大道口,bus-stop,28.6999870998693,115.8198183,"{3.0,4.0,3.0,5.0,2.0,3.0,2.0,2.0,2.0,2.0}",,,,,
11051472437,Le Cigale,restaurant,43.2960890005414,5.3687123,"{3.0,4.0,3.0,5.0,2.0,3.0,2.0,2.0,2.0,2.0}",,,,,
382132281,Praça Pública P19,park,-11.8392995537847,-55.5063724036991,"{3.0,4.0,3.0,5.0,2.0,3.0,2.0,2.0,2.0,2.0}",,,,,
439008875,Parco IV novembre,park,45.6322351181833,8.38365194902293,"{3.0,4.0,3.0,5.0,2.0,3.0,2.0,2.0,2.0,2.0}",,,,,
4524864187,釜山順豆腐,restaurant,25.0445432002542,121.5081002,"{3.0,4.0,3.0,5.0,2.0,3.0,2.0,2.0,2.0,2.0}",,,,,
1105369601,Тевосяна 8,bus-stop,53.3590068991072,58.9509701,"{3.0,4.0,3.0,5.0,2.0,3.0,2.0,2.0,2.0,2.0}",,,,,
1551425675,Bubbling Brook Restaurant,restaurant,42.2014138005003,-71.2498404,"{3.0,4.0,3.0,5.0,2.0,3.0,2.0,2.0,2.0,2.0}",,,,,
174296039,Kočičí skály,nature-reserve,50.563791852373,16.2121976143889,"{3.0,4.0,3.0,5.0,2.0,3.0,2.0,2.0,2.0,2.0}",,,,,
4329802858,省政府,bus-stop,36.0587247997414,103.8240516,"{3.0,4.0,3.0,5.0,2.0,3.0,2.0,2.0,2.0,2.0}",,,,,
391232883,Schulzentrum,bus-stop,52.1790412991038,9.0724625,"{3.0,4.0,3.0,5.0,2.0,3.0,2.0,2.0,2.0,2.0}",,,,,
5728718023,Час-пик,coffee-shop,52.6026514990856,39.5937331,"{3.0,4.0,3.0,5.0,2.0,3.0,2.0,2.0,2.0,2.0}",,,,,
2096384843,麺でる,restaurant,35.6273289997006,139.4296344,"{3.0,4.0,3.0,5.0,2.0,3.0,2.0,2.0,2.0,2.0}",,,,,
726966953,Módulo 27 de Mayo,school,-17.8022642781622,-63.1303739988399,"{3.0,4.0,3.0,5.0,2.0,3.0,2.0,2.0,2.0,2.0}",,,,,
10675347361,Филоново,railway-station,50.5380286993364,42.6712485,"{3.0,4.0,3.0,5.0,2.0,3.0,2.0,2.0,2.0,2.0}",,,,,
372422698,Sculpture: Nemus for Bri,park,-45.8739039327302,170.499779430341,"{3.0,4.0,3.0,5.0,2.0,3.0,2.0,2.0,2.0,2.0}",,,,,
2686851179,Parada 55,bus-stop,-30.0771429993196,-51.0412666,"{3.0,4.0,3.0,5.0,2.0,3.0,2.0,2.0,2.0,2.0}",,,,,
569499183,糸田新町ふれあい公園,park,36.5577368108785,136.630146400318,"{3.0,4.0,3.0,5.0,2.0,3.0,2.0,2.0,2.0,2.0}",,,,,
7765268047,J K Asian Food S L,convenience-store,41.3792789004322,2.1723038,"{3.0,4.0,3.0,5.0,2.0,3.0,2.0,2.0,2.0,2.0}",,,,,
317558138,Mirador 29 Poniente,park,-32.9878427995264,-71.5295556666667,"{3.0,4.0,3.0,5.0,2.0,3.0,2.0,2.0,2.0,2.0}",,,,,
622923974,Academia Champions Life,gym,-25.3398731374382,-49.1529383313063,"{3.0,4.0,3.0,5.0,2.0,3.0,2.0,2.0,2.0,2.0}",,,,,
1621596349,Afro-Shop,convenience-store,52.2685424990983,10.5278435,"{3.0,4.0,3.0,5.0,2.0,3.0,2.0,2.0,2.0,2.0}",,,,,
9835553965,Bad Kissingen Gymnasium / Realschule,bus-stop,50.2044014994067,10.0817786,"{3.0,4.0,3.0,5.0,2.0,3.0,2.0,2.0,2.0,2.0}",,,,,
6960327555,Аптека 51,pharmacy,49.1899955996454,37.2781375,"{3.0,4.0,3.0,5.0,2.0,3.0,2.0,2.0,2.0,2.0}",,,,,
923178849,McDonald's,fast-food,40.7879830304779,-82.9864291883209,"{3.0,4.0,3.0,5.0,2.0,3.0,2.0,2.0,2.0,2.0}",,,,,
469787208,Central Middlesex Hospital,bus-stop,51.5302006991685,-0.269969,"{3.0,4.0,3.0,5.0,2.0,3.0,2.0,2.0,2.0,2.0}",,,,,
1511896835,"Šarišské Dravce, ZŠ",bus-stop,49.1734821996495,20.8702237,"{3.0,4.0,3.0,5.0,2.0,3.0,2.0,2.0,2.0,2.0}",,,,,
7178552447,エニタイムフィットネス,gym,40.80653530037,140.7545569,"{3.0,4.0,3.0,5.0,2.0,3.0,2.0,2.0,2.0,2.0}",,,,,
9357734947,신림리 새마(일선교정류장방면),bus-stop,36.2833109997648,128.3565177,"{3.0,4.0,3.0,5.0,2.0,3.0,2.0,2.0,2.0,2.0}",,,,,
6974211790,Balvantray Mehta Nisargopchar Arogya Bhavan,hospital,22.3227822004035,73.2102178,"{3.0,4.0,3.0,5.0,2.0,3.0,2.0,2.0,2.0,2.0}",,,,,
9543540434,El Bajón del Hippie,fast-food,-32.7141569994896,-71.4857247,"{3.0,4.0,3.0,5.0,2.0,3.0,2.0,2.0,2.0,2.0}",,,,,
308520674,Alfonso Reyes,railway-station,25.7157426001925,-100.34249,"{3.0,4.0,3.0,5.0,2.0,3.0,2.0,2.0,2.0,2.0}",,,,,
8006662568,Fairfax Street opposite Norm Chapman Oval,bus-stop,-32.7110721994892,151.5210548,"{3.0,4.0,3.0,5.0,2.0,3.0,2.0,2.0,2.0,2.0}",,,,,
10781977823,星宝橋,bus-stop,43.0973823005387,141.5687981,"{3.0,4.0,3.0,5.0,2.0,3.0,2.0,2.0,2.0,2.0}",,,,,
971647925,Scuola secondaria di primo grado Antonio Brancati,school,43.9018384717156,12.9051813612393,"{3.0,4.0,3.0,5.0,2.0,3.0,2.0,2.0,2.0,2.0}",,,,,
9454538047,市行政中心,bus-stop,27.9540568999514,116.3555065,"{3.0,4.0,3.0,5.0,2.0,3.0,2.0,2.0,2.0,2.0}",,,,,
8812484917,Glogauer Straße,bus-stop,51.299110399201,13.2704088,"{3.0,4.0,3.0,5.0,2.0,3.0,2.0,2.0,2.0,2.0}",,,,,
1076907108,Sopur,railway-station,34.2580061996112,74.4511792,"{3.0,4.0,3.0,5.0,2.0,3.0,2.0,2.0,2.0,2.0}",,,,,
9759658737,Tida Thai Imbiss,restaurant,47.8130516999819,13.041857,"{3.0,4.0,3.0,5.0,2.0,3.0,2.0,2.0,2.0,2.0}",,,,,
2321470592,Wing Lung,restaurant,3.19118049966346,101.7281811,"{3.0,4.0,3.0,5.0,2.0,3.0,2.0,2.0,2.0,2.0}",,,,,
502510625,"Barnton, Hough Lane / Lydyett Lane",bus-stop,53.2752725991012,-2.5404111,"{3.0,4.0,3.0,5.0,2.0,3.0,2.0,2.0,2.0,2.0}",,,,,
6432587004,Bellevue-Mairie,bus-stop,46.2546026003012,6.1547459,"{3.0,4.0,3.0,5.0,2.0,3.0,2.0,2.0,2.0,2.0}",,,,,
2789230351,Bayview Avenue Stop #2254,bus-stop,44.0215591005319,-79.4477004,"{3.0,4.0,3.0,5.0,2.0,3.0,2.0,2.0,2.0,2.0}",,,,,
8166137714,Venice & Crenshaw,bus-stop,34.0449916996032,-118.328962,"{3.0,4.0,3.0,5.0,2.0,3.0,2.0,2.0,2.0,2.0}",,,,,
10248079339,金三角,bus-stop,38.9685702001214,121.5824939,"{3.0,4.0,3.0,5.0,2.0,3.0,2.0,2.0,2.0,2.0}",,,,,
3600571994,Hotel Graal,restaurant,49.9738997994582,20.2853281,"{3.0,4.0,3.0,5.0,2.0,3.0,2.0,2.0,2.0,2.0}",,,,,
2821889898,Ground 101,coffee-shop,52.4833856990886,-1.9054036,"{3.0,4.0,3.0,5.0,2.0,3.0,2.0,2.0,2.0,2.0}",,,,,
10301294845,UPRUC,bus-stop,45.8282362003683,24.9833341,"{3.0,4.0,3.0,5.0,2.0,3.0,2.0,2.0,2.0,2.0}",,,,,
11338234726,유성구노인복지관,bus-stop,36.3841606997758,127.3448784,"{3.0,4.0,3.0,5.0,2.0,3.0,2.0,2.0,2.0,2.0}",,,,,
2460827371,Salt Lake Collegiate School,school,22.5916061003973,88.4095866,"{3.0,4.0,3.0,5.0,2.0,3.0,2.0,2.0,2.0,2.0}",,,,,
6010963055,Décarie / Jacques-Grenier,bus-stop,45.4812734004152,-73.6232291,"{3.0,4.0,3.0,5.0,2.0,3.0,2.0,2.0,2.0,2.0}",,,,,
5240457216,Дониёр чойхона,restaurant,40.739002300362,72.3167109,"{3.0,4.0,3.0,5.0,2.0,3.0,2.0,2.0,2.0,2.0}",,,,,
2572692464,若葉台駅,bus-stop,35.6204819997,139.4718504,"{3.0,4.0,3.0,5.0,2.0,3.0,2.0,2.0,2.0,2.0}",,,,,
9357248517,新科路创新大道,bus-stop,31.8746618996135,119.9904803,"{3.0,4.0,3.0,5.0,2.0,3.0,2.0,2.0,2.0,2.0}",,,,,
391734020,Cirencester College,college,51.7122183871468,-1.98424260550837,"{3.0,4.0,3.0,5.0,2.0,3.0,2.0,2.0,2.0,2.0}",,,,,
5012723548,Asociación Cultural Cotorro Blanco,pub,42.4341554005142,-3.7276867,"{3.0,4.0,3.0,5.0,2.0,3.0,2.0,2.0,2.0,2.0}",,,,,
624715261,Starbucks,coffee-shop,30.40193116263,-84.2370052580073,"{3.0,4.0,3.0,5.0,2.0,3.0,2.0,2.0,2.0,2.0}",,,,,
662172748,Grădinița nr. 5 „Soarele”,kindergarten,47.5759690254059,27.7095657752877,"{3.0,4.0,3.0,5.0,2.0,3.0,2.0,2.0,2.0,2.0}",,,,,
4894872535,37 Prisk St,bus-stop,-37.8173773005316,175.2757907,"{3.0,4.0,3.0,5.0,2.0,3.0,2.0,2.0,2.0,2.0}",,,,,
8587902446,Vista at Northridge,bus-stop,49.7017999995215,-123.137536,"{3.0,4.0,3.0,5.0,2.0,3.0,2.0,2.0,2.0,2.0}",,,,,
1586764,Club Atlético,sports-centre,-35.4010448980923,-59.3387059545941,"{3.0,4.0,3.0,5.0,2.0,3.0,2.0,2.0,2.0,2.0}",,,,,
5721497625,Ravenshoe IGA,supermarket,-17.6069729004753,145.4825401,"{3.0,4.0,3.0,5.0,2.0,3.0,2.0,2.0,2.0,2.0}",,,,,
10208396879,Jelenje groblje,bus-stop,45.3864826004268,14.455441,"{3.0,4.0,3.0,5.0,2.0,3.0,2.0,2.0,2.0,2.0}",,,,,
10235419981,Vitus,supermarket,47.3714338000822,8.5436433,"{3.0,4.0,3.0,5.0,2.0,3.0,2.0,2.0,2.0,2.0}",,,,,
719090398,Yeti Camp Snacks,restaurant,41.2283574346763,-95.9249953010363,"{3.0,4.0,3.0,5.0,2.0,3.0,2.0,2.0,2.0,2.0}",,,,,
2459147050,Dr. Univ.Prof. Bengt Alfred Hellbom,doctor,47.0757179001456,15.4493153,"{3.0,4.0,3.0,5.0,2.0,3.0,2.0,2.0,2.0,2.0}",,,,,
6834461014,Restoran Evropa,restaurant,44.3496441005172,21.0767116,"{3.0,4.0,3.0,5.0,2.0,3.0,2.0,2.0,2.0,2.0}",,,,,
566475652,Torretta - Viale Milano 93,bus-stop,45.3216334004344,9.4826908,"{3.0,4.0,3.0,5.0,2.0,3.0,2.0,2.0,2.0,2.0}",,,,,
7005097606,Rocha,restaurant,-23.668945699973,-46.5039074,"{3.0,4.0,3.0,5.0,2.0,3.0,2.0,2.0,2.0,2.0}",,,,,
7106759361,Ristorante Pizzeria Principe,restaurant,38.1241094999995,13.3580491,"{3.0,4.0,3.0,5.0,2.0,3.0,2.0,2.0,2.0,2.0}",,,,,
9557371940,Dewan Datin Zaleha,bus-stop,3.23023749965962,101.71257,"{3.0,4.0,3.0,5.0,2.0,3.0,2.0,2.0,2.0,2.0}",,,,,
837479386,Pollo Tropical,fast-food,28.4667649998946,-81.3111585,"{3.0,4.0,3.0,5.0,2.0,3.0,2.0,2.0,2.0,2.0}",,,,,
4782861676,Gurendes,bus-stop,42.8505045005323,-3.1170254,"{3.0,4.0,3.0,5.0,2.0,3.0,2.0,2.0,2.0,2.0}",,,,,
2452826992,Pizz' Alex,restaurant,45.8435267003661,5.0306977,"{3.0,4.0,3.0,5.0,2.0,3.0,2.0,2.0,2.0,2.0}",,,,,
9884260370,Cafeteria Diallo,coffee-shop,6.19864969943512,1.2016034,"{3.0,4.0,3.0,5.0,2.0,3.0,2.0,2.0,2.0,2.0}",,,,,
1148701085,Travolta,pub,52.4980839990882,13.4293181,"{3.0,4.0,3.0,5.0,2.0,3.0,2.0,2.0,2.0,2.0}",,,,,
603103851,Fuji Sushi,restaurant,30.1933715332397,-92.0597196493902,"{3.0,4.0,3.0,5.0,2.0,3.0,2.0,2.0,2.0,2.0}",,,,,
375163253,잔디광장,park,33.3123398734216,126.459941098584,"{3.0,4.0,3.0,5.0,2.0,3.0,2.0,2.0,2.0,2.0}",,,,,
2434137430,Фаворит,convenience-store,44.5842897005026,33.4399373,"{3.0,4.0,3.0,5.0,2.0,3.0,2.0,2.0,2.0,2.0}",,,,,
305812382,Hoover Park,park,40.8773197163349,-81.3705137744525,"{3.0,4.0,3.0,5.0,2.0,3.0,2.0,2.0,2.0,2.0}",,,,,
1159585562,TT Pilates Nha Trang,restaurant,12.2387438588009,109.195355557077,"{3.0,4.0,3.0,5.0,2.0,3.0,2.0,2.0,2.0,2.0}",,,,,
5762136343,Circle K,convenience-store,22.1510200004065,-100.981739,"{3.0,4.0,3.0,5.0,2.0,3.0,2.0,2.0,2.0,2.0}",,,,,
9682706738,肯德基,fast-food,40.1277125002845,116.6457462,"{3.0,4.0,3.0,5.0,2.0,3.0,2.0,2.0,2.0,2.0}",,,,,
7884580491,Sapore,restaurant,45.4672106004169,8.4617985,"{3.0,4.0,3.0,5.0,2.0,3.0,2.0,2.0,2.0,2.0}",,,,,
622229392,Mendota Rd,bus-stop,44.8839466004789,-93.0843072,"{3.0,4.0,3.0,5.0,2.0,3.0,2.0,2.0,2.0,2.0}",,,,,
240252012,Trung Tâm Học Liệu - Đại Học Huế,college,16.4643710513272,107.587777683568,"{3.0,4.0,3.0,5.0,2.0,3.0,2.0,2.0,2.0,2.0}",,,,,
28601989,McDonald's,fast-food,50.1377140292395,8.69694939758897,"{3.0,4.0,3.0,5.0,2.0,3.0,2.0,2.0,2.0,2.0}",,,,,
2148505747,Fornalla Gourmet,restaurant,4.85668879951726,-74.0775269,"{3.0,4.0,3.0,5.0,2.0,3.0,2.0,2.0,2.0,2.0}",,,,,
302017806,Leopoldstraße,bus-stop,48.8911495997193,8.6989626,"{3.0,4.0,3.0,5.0,2.0,3.0,2.0,2.0,2.0,2.0}",,,,,
306124303,Jet,convenience-store,50.8513856471681,0.523901143342953,"{3.0,4.0,3.0,5.0,2.0,3.0,2.0,2.0,2.0,2.0}",,,,,
798551200,Hudson Headwaters Pediatric and Adolescent Health,doctor,43.3063330055238,-73.6638974271527,"{3.0,4.0,3.0,5.0,2.0,3.0,2.0,2.0,2.0,2.0}",,,,,
843223517,Energy Express,convenience-store,38.5979144222957,-90.3312480652931,"{3.0,4.0,3.0,5.0,2.0,3.0,2.0,2.0,2.0,2.0}",,,,,
5924122985,Escuela Henry Reeve,school,22.638442800396,-81.2926953,"{3.0,4.0,3.0,5.0,2.0,3.0,2.0,2.0,2.0,2.0}",,,,,
1439710222,Castellana-San Germán,bus-stop,40.4555721003271,-3.6901188,"{3.0,4.0,3.0,5.0,2.0,3.0,2.0,2.0,2.0,2.0}",,,,,
369699606,Hopital de Thiaroye,hospital,14.7543360121185,-17.3761144896717,"{3.0,4.0,3.0,5.0,2.0,3.0,2.0,2.0,2.0,2.0}",,,,,
2290847094,Meldert Dorpstraat,bus-stop,50.9344687992609,4.1351862,"{3.0,4.0,3.0,5.0,2.0,3.0,2.0,2.0,2.0,2.0}",,,,,
9630817205,مکان دیدنی چشمه رستم آباد,park,32.0875737996054,50.5106904,"{3.0,4.0,3.0,5.0,2.0,3.0,2.0,2.0,2.0,2.0}",,,,,
211230832,いちょう団地2号公園,park,35.4292986729975,139.472799713466,"{3.0,4.0,3.0,5.0,2.0,3.0,2.0,2.0,2.0,2.0}",,,,,
411210011,君莲学校,school,31.0835004569931,121.413476120967,"{3.0,4.0,3.0,5.0,2.0,3.0,2.0,2.0,2.0,2.0}",,,,,
511630333,Shree Jalkanya Pra. Vi,school,27.3386313243878,85.9550453715866,"{3.0,4.0,3.0,5.0,2.0,3.0,2.0,2.0,2.0,2.0}",,,,,
3184256919,阜埠河路,bus-stop,28.1670980999276,112.9463891,"{3.0,4.0,3.0,5.0,2.0,3.0,2.0,2.0,2.0,2.0}",,,,,
4142456889,El cerdito goloso,convenience-store,40.4041637003206,-3.6920092,"{3.0,4.0,3.0,5.0,2.0,3.0,2.0,2.0,2.0,2.0}",,,,,
9660462061,클린의원,doctor,36.1180921997475,128.1836723,"{3.0,4.0,3.0,5.0,2.0,3.0,2.0,2.0,2.0,2.0}",,,,,
2554589665,Weslodge,restaurant,43.6453893005408,-79.3961396,"{3.0,4.0,3.0,5.0,2.0,3.0,2.0,2.0,2.0,2.0}",,,,,
24587733,Plaza Alcalde Manuel Chávez Guiñez,park,-36.7036243310038,-71.8923076830474,"{3.0,4.0,3.0,5.0,2.0,3.0,2.0,2.0,2.0,2.0}",,,,,
7710303619,Вита Экспресс,pharmacy,48.8045474997408,44.5977625,"{3.0,4.0,3.0,5.0,2.0,3.0,2.0,2.0,2.0,2.0}",,,,,
2749677208,Subway,fast-food,52.2431250990997,6.8520557,"{3.0,4.0,3.0,5.0,2.0,3.0,2.0,2.0,2.0,2.0}",,,,,
5130811322,Anytime Fitness,gym,-28.0742407994062,153.4450129,"{3.0,4.0,3.0,5.0,2.0,3.0,2.0,2.0,2.0,2.0}",,,,,
1468374919,Mountain Top Fuel,convenience-store,37.6881075999386,-108.0319895,"{3.0,4.0,3.0,5.0,2.0,3.0,2.0,2.0,2.0,2.0}",,,,,
1094319404,Praça Presidente Arthur Bernardes,park,-22.731900936219,-47.1820407922888,"{3.0,4.0,3.0,5.0,2.0,3.0,2.0,2.0,2.0,2.0}",,,,,
126237800,Castlerea,railway-station,53.7614555991494,-8.4857909,"{3.0,4.0,3.0,5.0,2.0,3.0,2.0,2.0,2.0,2.0}",,,,,
738271890,Mountain View Elementary School,school,43.6367658452604,-116.269861593551,"{3.0,4.0,3.0,5.0,2.0,3.0,2.0,2.0,2.0,2.0}",,,,,
4665757255,Premier,convenience-store,53.8219989991577,-2.6094567,"{3.0,4.0,3.0,5.0,2.0,3.0,2.0,2.0,2.0,2.0}",,,,,
280585298,Café el paseo,coffee-shop,38.3670778000343,-0.4336258,"{3.0,4.0,3.0,5.0,2.0,3.0,2.0,2.0,2.0,2.0}",,,,,
6360026874,Stewart's Bistro,restaurant,55.4773777995808,-2.5549619,"{3.0,4.0,3.0,5.0,2.0,3.0,2.0,2.0,2.0,2.0}",,,,,
761465210,湖北中医药大学（昙华林校区）,university,30.5528527873664,114.307250031198,"{3.0,4.0,3.0,5.0,2.0,3.0,2.0,2.0,2.0,2.0}",,,,,
3011978189,Escuela 471,school,-27.0790975995041,-54.7148649,"{3.0,4.0,3.0,5.0,2.0,3.0,2.0,2.0,2.0,2.0}",,,,,
4345563792,Bazar Asia,convenience-store,41.0764279004006,1.1811736,"{3.0,4.0,3.0,5.0,2.0,3.0,2.0,2.0,2.0,2.0}",,,,,
2124328522,Nuevo Versalles,bus-stop,40.2919828003061,-3.8303815,"{3.0,4.0,3.0,5.0,2.0,3.0,2.0,2.0,2.0,2.0}",,,,,
502534507,Bryce Road,bus-stop,55.8974516997449,-3.3030323,"{3.0,4.0,3.0,5.0,2.0,3.0,2.0,2.0,2.0,2.0}",,,,,
6918696208,"Park d'agrément (Boloré, Blue zone)",park,13.5013720997337,2.1389536,"{3.0,4.0,3.0,5.0,2.0,3.0,2.0,2.0,2.0,2.0}",,,,,
6738147895,Панчарево хилс,restaurant,42.5971186005223,23.4091005,"{3.0,4.0,3.0,5.0,2.0,3.0,2.0,2.0,2.0,2.0}",,,,,
2080766038,Krua Sabai Sabai,restaurant,13.2207333997029,100.9361163,"{3.0,4.0,3.0,5.0,2.0,3.0,2.0,2.0,2.0,2.0}",,,,,
4790808749,Grizzly 2.0,restaurant,44.0800081005298,10.0981103,"{3.0,4.0,3.0,5.0,2.0,3.0,2.0,2.0,2.0,2.0}",,,,,
10188040127,Gimnàs Bordeta,gym,41.6051578004536,0.6433207,"{3.0,4.0,3.0,5.0,2.0,3.0,2.0,2.0,2.0,2.0}",,,,,
7662417748,恵み野,railway-station,42.9024100005339,141.5743272,"{3.0,4.0,3.0,5.0,2.0,3.0,2.0,2.0,2.0,2.0}",,,,,
